Адрес на 30.08.2021;Широта;Долгота;;;
Ленинградский просп., напротив д.68, в центр (выезд из Волоколамского тоннеля), г. Москва;55.802921;37.522291;;;
ул.Косыгина, вл.29, от Мичуринского пр-та, г. Москва;55.710471;37.539083;;;
Северо-Восточная хорда, д. 8, с.1 по Окружному проезду, к ш. Энтузиастов, г. Москва;55.794606;37.746737;;;
Варшавское ш., д.85, к.1, в центр, г. Москва;55.655629;37.619675;;;
ул.Косыгина, д.32, МГТ № 194, к Мосфильмовской улице, г. Москва;55.720548;37.535458;;;
ул.Красная Пресня, напротив д. 31, в центр, г. Москва;55.762952;37.562591;;;
Бережковская наб., д.12, из центра, г. Москва;55.738005;37.565362;;;
Бережковская наб., напротив д. 22, МГО № 25, в центр, г. Москва;55.730992;37.552203;;;
ул.Садовая-Спасская, д.19, к.1, внешняя сторона, г. Москва;55.76947;37.647357;;;
Северо-Западный (Серебряноборский) тоннель, д.17, с.4 по ул. Крылатской, в центр, г. Москва;55.772267;37.419254;;;
Маршала Жукова просп., напротив д. 23 по ул. Маршала Прошлякова, в центр, г. Москва;55.788045;37.381095;;;
ул.Масловка Нижн., д.9, г. Москва;55.791432;37.576649;;;
МКАД, 66км 970м, Г-опора, внутренняя сторона, г. Москва;55.827755;37.394387;;;
МКАД, 84км 770м, внешняя сторона, Г-опора, г. Москва;55.908424;37.594383;;;
МКАД, 60км 700м, Г-опора, внутренняя сторона, г. Москва;55.773453;37.369797;;;
МКАД, 103 км 375 м, П-опора, внутренняя сторона, г. Москва;55.821695;37.836933;;;
МКАД, 33 км 630 м, П-опора, внешняя сторона, г. Москва;55.578142;37.584605;;;
Каширское ш., вл.106А, г. Москва;55.611331;37.71695;;;
Буденного просп., д.51, к.6, г. Москва;55.759025;37.738748;;;
Волоколамское ш., д. 4, к. 1 по 1-му Красногорскому проезду, из центра, г. Москва;55.810997;37.485558;;;
ул.Академическая Б., Алабяно-Балтийский тоннель, д.25/2 по ул.Космонавта Волкова, г. Москва;55.819774;37.524523;;;
МКАД, 69 км 750 м, Г-опора, внешняя сторона, г. Москва;55.852518;37.393928;;;
МКАД, 73 км, Г-опора, внешняя сторона, г. Москва;55.87512;37.423277;;;
МКАД, 58км 950м, внутренняя сторона, П-опора, г. Москва;55.757784;37.369333;;;
Северо-Восточная хорда, вл.2, стр. 1 по аллее Пролетарского Входа, к Щелковскому ш., г. Москва;55.76761;37.74746;;;
МКАД, 69км 300м, внешняя сторона, МГО № 9, г. Москва;55.84846;37.391842;;;
МКАД, 12 км 100 м, П-опора, внешняя сторона, г. Москва;55.671075;37.836801;;;
МКАД, 1 км 865 м, П-опора, внешняя сторона, г. Москва;55.762145;37.843086;;;
МКАД, 76 км 420 м, П-опора, внутренняя сторона, г. Москва;55.884383;37.47217;;;
ул.Конюшковская, напротив д. 26, г. Москва;55.758399;37.578471;;;
МКАД, 92 км 650 м, П-опора, внутренняя сторона, г. Москва;55.88862;37.713406;;;
МКАД, 85 км 50 м, П-опора, внешняя сторона, г. Москва;55.907204;37.598648;;;
МКАД, 84 км 540 м, Г-опора, внешняя сторона, г. Москва;55.909331;37.591226;;;
Маршала Жукова просп.,съезд на улицу Крылатская, из центра, г. Москва;55.772573;37.423255;;;
МКАД, 77 км 900 м, П-опора, внешняя сторона, г. Москва;55.891429;37.494656;;;
МКАД, 107 км 500 м, П-опора, внутренняя сторона, г. Москва;55.785746;37.841583;;;
МКАД, 105 км 530 м, П-опора, внутренняя сторона, г. Москва;55.802835;37.839687;;;
МКАД, 65 км 280 м, напротив МГО №123, внешняя сторона, г. Москва;55.812613;37.389325;;;
МКАД, 6 км 50 м, П-опора, внешняя сторона, г. Москва;55.725595;37.839965;;;
МКАД, 3 км 820 м, Г-опора, внешняя сторона, г. Москва;55.742773;37.842119;;;
МКАД, 60 км 500 м, П-опора, внутренняя сторона, г. Москва;55.771488;37.369692;;;
МКАД, 25-й км, внутренняя сторона, съезд с Каширского ш., МГО № 042, г. Москва;55.588909;37.721661;;;
МКАД, 20км 170 м, П-опора, внешняя сторона, г. Москва;55.613049;37.774109;;;
МКАД, 73 км 265 м, напротив МГО №378, внутренняя сторона, г. Москва;55.876011;37.426863;;;
ул.Моховая, д.15/1, г. Москва;55.756321;37.614136;;;
ТТК, внешняя сторона, Беговая ул., д. 5, МГО № 0515, г. Москва;55.77687;37.555446;;;
ул.Васильевская, д.11 по 1-ой Тверской-Ямской ул., к 1-ой Тверской-Ямской ул., г. Москва;55.772815;37.590058;;;
ул.Захарьинские Дворики, д.1, к.1, г. Москва;55.504128;37.57508;;;
ФАД М-9 Балтия, 18км 885м, из центра;55.798291;37.345493;;;
Новорижское ш., 17км 320м, Г-опора, в центр, г. Москва;55.79077;37.366439;;;
Ленинградский просп., д.68, из центра (въезд в Волоколамский тоннель), г. Москва;55.803122;37.522453;;;
ФАД А-101, Москва-Рославль, 36 км 700 м, МГО № 919, Десеновское п-е, г. Москва;55.497491;37.330784;;;
МКАД, 27км 660м, напротив МГО № 243, внутренняя сторона, г. Москва;55.57352;37.680253;;;
Волоколамское ш., в районе д.2, с.3 по ул.Свободы, из центра, г. Москва;55.82044;37.450501;;;
Волоколамское ш., д.10, из центра, г. Москва;55.808557;37.497515;;;
ТТК, внешняя сторона, у д. 2 стр. 5 по Переведеновскому пер., МГО № 005, г. Москва;55.775698;37.682815;;;
ТТК, внешняя сторона, напротив д. 11 стр. 24 по ул. Золоторожский Вал, г. Москва;55.751092;37.696718;;;
Энтузиастов ш., д.47, в центр, г. Москва;55.771084;37.816322;;;
Энтузиастов ш., д.86, с.3, из центра, МГО № 314, г. Москва;55.766565;37.794287;;;
Энтузиастов ш., напротив д. 47, МГО № 388, из центра, г. Москва;55.770637;37.815188;;;
МКАД, 65 км 500м, Г-опора, внутренняя сторона, г. Москва;55.814527;37.390342;;;
МКАД, 72 км 650 м, Г-опора, внутренняя сторона, г. Москва;55.873396;37.418551;;;
ул.Полянка Б., д.3/9, г. Москва;55.742154;37.615957;;;
Варшавское ш., у д.8, к.5 по Каширскому шоссе, в центр, МГТ № 204, г. Москва;55.66755;37.623699;;;
МКАД, 48км, Г-опора, внешняя сторона, г. Москва;55.666252;37.428875;;;
ул.Тверская-Ямская 1-Я, д.1/2 по ул.Лесная, г. Москва;55.776615;37.585264;;;
ул.Косыгина,  к Мичуринскому пр-ту, МГТ № 154, г. Москва;55.713535;37.537204;;;
ул.Косыгина, д.67, с.2, к Мичуринскому пр-ту, г. Москва;55.718043;37.534842;;;
МКАД, 0км 650м, Г-опора, внутренняя сторона, г. Москва;55.773124;37.842907;;;
МКАД, 0км 800м, П-опора, внешняя сторона, г. Москва;55.771587;37.8435;;;
МКАД, 6км 600м, Г-опора, внешняя сторона, г. Москва;55.720864;37.839477;;;
Алабяно-Балтийский тоннель, Алабяна ул., д.7, г. Москва;55.801958;37.507503;;;
МКАД, 31км 420м, П-опора , внутренняя сторона, г. Москва;55.574849;37.619166;;;
Киевское ш., 62км 930м, МГО№017, из области, рп Киевский, Киевский п-е, г. Москва;55.433688;36.867171;;;
Варшавское ш., вл. 166В, стр.1, из центра, г. Москва;55.567629;37.597659;;;
Пролетарский просп., д.12/25, г. Москва;55.644758;37.655972;;;
МКАД,101 км 775м, П-опора, внутренняя сторона, г. Москва;55.83308;37.82174;;;
МКАД, 34 км 860 м, П-опора, внешняя сторона, г. Москва;55.582476;37.566263;;;
МКАД, 31 км 820 м, П-опора, внешняя сторона, г. Москва;55.575013;37.612032;;;
МКАД, 21 км 135 м, П-опора, внешняя сторона, г. Москва;55.60674;37.762561;;;
ул.Тверская, д.25, в центр, г. Москва;55.767843;37.599298;;;
Варшавское ш., д.128, к.1, г. Москва;55.622885;37.614848;;;
ул.Ельнинская, д. 25, к.3 по Ярцевской ул., к Ярцевской ул., г. Москва;55.741903;37.415138;;;
ул.Чаянова, д.27 по 2-ой Тверской-Ямской ул., к 1-ой Тверской-Ямской ул., г. Москва;55.77345;37.591033;;;
Северо-Восточная хорда, д. 34, к.3 по Окружному проезду, к ш. Энтузиастов, г. Москва;55.76759;37.747151;;;
Павелецкая наб., напротив д. 8, г. Москва;55.708824;37.647073;;;
Северо-Западный (Серебряноборский) тоннель, напротив д.15, с.6 по ул. Маршала Прошлякова, в центр, г. Москва;55.787361;37.385053;;;
"а/д ""Рассказовка-М-3""Украина"", напротив д.6 по б-ру Андрея Тарковского, д. Рассказовка, Внуковское п-е, г. Москва";55.625176;37.337603;;;
Северо-Восточная хорда, д. 2А, стр.1 по ул. Вернисажная, к Щелковскому ш., г. Москва;55.79453;37.74696;;;
Волоколамское ш., д.7, в центр, г. Москва;55.807818;37.501006;;;
Проектируемый проезд №7157, д.171, с.1 СНТ Филатов Луг, Сосенское п-е, г. Москва;55.593165;37.408095;;;
МКАД, 104км 500м, напротив МГО № 266, внешняя сторона, г. Москва;55.811864;37.839312;;;
Киевское ш., 63км 150м, МГО № 032, в область, рп Киевский, Киевский п-е, г. Москва;55.431871;36.863905;;;
ул.Черкизовская Б., д.16/2, г. Москва;55.798;37.727943;;;
МКАД, 7 км 330 м, П-опора, внешняя сторона, г. Москва;55.713349;37.838054;;;
МКАД, 13 км 670 м, Т-опора, внутренняя сторона, г. Москва;55.657392;37.838875;;;
Комсомольская пл., д.5А, в центр, г. Москва;55.77571;37.656316;;;
Липецкая ул. -МКАД (после съезда с внешнего кольца на Липецкую ул.),в центр, г. Москва;55.575305;37.688955;;;
Орликов пер., д. 11/1 по ул. Садовая-Спасская, г. Москва;55.770014;37.64643;;;
ул.Липецкая, вл. 23, в центр, г. Москва;55.578022;37.686002;;;
ул.Талдомская, д.4, г. Москва;55.872797;37.521075;;;
МКАД, 102км 650м, Г-опора, внутренняя сторона, г. Москва;55.827504;37.831656;;;
МКАД, 75 км, внешняя сторона, съезд на Ленинградское ш., г. Москва;55.882537;37.449186;;;
МКАД, 0км 500м, П-опора, внутренняя сторона, г. Москва;55.774396;37.842765;;;
МКАД 90 км, внутренняя сторона, 370 метров до съезда 90, г. Москва;55.895538;37.663284;;;
ул.Лобачевского, д.76А по проспекту Вернадского, г. Москва;55.670911;37.493816;;;
МКАД, 83км 575м, П-опора, внутренняя сторона, г. Москва;55.910878;37.576254;;;
Апакова проезд, д.1, к.1 по Калужской площади, г. Москва;55.727729;37.610832;;;
МКАД, 64км 940м, напротив МГО № 118, внутренняя сторона, г. Москва;55.80954;37.388856;;;
МКАД, 37км 840м, П-опора, внешняя сторона, г. Москва;55.593005;37.522135;;;
Энтузиастов ш., напротив д. 86 стр. 3, в центр, г. Москва;55.766626;37.793918;;;
ул.Академическая Б., д.28, г. Москва;55.82839;37.530606;;;
ул.Академическая Б., д.25, г. Москва;55.827361;37.529994;;;
Кутузовский просп., д.9, к.1, в центр, г. Москва;55.748812;37.561232;;;
Кутузовский просп., д.24, из центра, г. Москва;55.744675;37.546778;;;
ул.Косыгина, у д. 4, к.1, с.4 по проспекту Вернадского, г. Москва;55.706828;37.547108;;;
ул.Косыгина, напротив д. 4, к.1, с.4 по проспекту Вернадского, г. Москва;55.707233;37.547264;;;
Севастопольский просп., д.52, с.3 по ул. Обручева, из центра, г. Москва;55.647401;37.562171;;;
ул.Косыгина, д.4, г. Москва;55.707561;37.570475;;;
ул.Поляны, вл.59, с.1, г. Москва;55.550432;37.543246;;;
Севастопольский просп., д.46, к.1, из центра, г. Москва;55.653599;37.567781;;;
Ленинский просп., д.82, из центра, г. Москва;55.680709;37.534187;;;
Севастопольский просп., напротив д. 37, из центра, г. Москва;55.674115;37.589722;;;
Севастопольский просп., напротив вл.101, с.1, из центра, г. Москва;55.621767;37.542474;;;
ул.Народного Ополчения, д.32, П-опора, г. Москва;55.784948;37.482335;;;
ул.Пироговская Б., напротив д. 9А, стр.1, г. Москва;55.735682;37.579508;;;
ул.Большая Татарская, д.30, с.8, г. Москва;55.738518;37.634085;;;
ул.Обручева, д.35, к.1, г. Москва;55.650885;37.554899;;;
Косинское шоссе, П-опора, напротив МГО N107, от Новоухтомского шоссе, г. Москва;55.708214;37.861644;;;
Нахимовский просп., д.47, к.1, г. Москва;55.675985;37.567923;;;
ул.Лавочкина, д.54, к.2, г. Москва;55.864933;37.485629;;;
ул.Косыгина, д.17, к.8, г. Москва;55.705914;37.557011;;;
Варшавское ш., д.7, стр.19 по ул. Грина, г. Москва;55.565999;37.597612;;;
Новорязанское ш., Жулебинская эстакада, из центра, МГО № 091;55.676338;37.85592;;;
Варшавское ш., д.60, из центра, г. Москва;55.661758;37.619307;;;
Фрунзенская наб., напротив д.12, в центр, г. Москва;55.732067;37.595302;;;
Мичуринский просп., напротив д.29, к.3 по ул. Озерная, в центр, г. Москва;55.671646;37.45401;;;
Щелковское шоссе, д. 46, из центра, г. Москва;55.809952;37.793069;;;
Балаклавский просп., д.38, г. Москва;55.646768;37.575924;;;
ул.Беломорская, д.1Б, с.1, г. Москва;55.863009;37.469117;;;
Фрунзенская наб., д.22, с.2, г. Москва;55.725543;37.589882;;;
Вернадского просп., напротив д. 101, к.1, из центра, г. Москва;55.667343;37.487306;;;
Вернадского просп., напротив д.119, из центра, г. Москва;55.657879;37.480723;;;
Мичуринский просп., д.13 по ул. Олимпийская деревня, в центр, г. Москва;55.674652;37.460486;;;
Щелковское шоссе, д. 68, из центра, г. Москва;55.810369;37.807374;;;
Рязанский просп., д.51, в центр, г. Москва;55.724267;37.766101;;;
Мира просп., д.81, в центр, г. Москва;55.801046;37.635657;;;
Воробьевское ш., д.42 по ул. Косыгина, в центр, г. Москва;55.727681;37.538678;;;
Ленинский просп., д.16, из центра, г. Москва;55.718599;37.596091;;;
ул.Садовническая, д.79, г. Москва;55.73508;37.643859;;;
ул.Голубинская, напротив вл. 23, г. Москва;55.597644;37.532403;;;
Щелковское ш., вл.12, к.3, из центра, г. Москва;55.80637;37.76807;;;
ул.Барышиха, напротив д.6, г. Москва;55.839854;37.366937;;;
Коломенский проезд, напротив д. 10А, г. Москва;55.666083;37.650196;;;
ул.Полярная, д.16, к.1, г. Москва;55.87626;37.63697;;;
ул.Молодогвардейская, у д. 21, к.1, г. Москва;55.733752;37.421099;;;
ул.Енисейская, д.22, к.2, из центра, г. Москва;55.86891;37.66432;;;
Мира просп., д.74, с.1, из центра, г. Москва;55.789544;37.63504;;;
ул.Молодогвардейская, д.58, г. Москва;55.734046;37.393535;;;
ул.Академическая Б., вл. 43, г. Москва;55.83406;37.534;;;
ул.Богородский Вал, пересечение с наб.Ганнушкина, г. Москва;55.801226;37.69895;;;
Ленинский просп., напротив д. 35, из центра, г. Москва;55.711962;37.586925;;;
Косинское шоссе, П-опора, напротив МГО N108, к Новоухтомскому шоссе, г. Москва;55.708368;37.861428;;;
Щелковское ш., д.17, в центр, г. Москва;55.806477;37.767548;;;
Солянский проезд, д. 4-2/5с4 по Славянской пл., г. Москва;55.753766;37.635204;;;
ул.Вильгельма Пика, мост через р. Яуза, г. Москва;55.840461;37.636372;;;
Берниковская наб., напротив д. 52/16, с.2 по ул. Земляной Вал, г. Москва;55.74964;37.654131;;;
ул.Енисейская, д.25, г. Москва;55.871652;37.665337;;;
ул.Енисейская, д.1, с.30, г. Москва;55.852565;37.668237;;;
ул.Енисейская, д.12, с.2, из центра, г. Москва;55.863035;37.661322;;;
Дмитровское ш., напротив д.60, стр.8, в центр, г. Москва;55.852161;37.564513;;;
ул.Енисейская, д.7А, с.3, в центр, г. Москва;55.862676;37.660749;;;
ул.Плещеева, вл.4, г. Москва;55.883648;37.60466;;;
ул.Ижорская, напротив д.3 стр.6, г. Москва;55.8839;37.50351;;;
Зеленый просп., д.97, г. Москва;55.750172;37.82698;;;
ул.Фрязевская, пересечение с съездом с Новогиреевского путепровода, из центра, г. Москва;55.744229;37.81591;;;
ул.Свободы, д.29, к.1, г. Москва;55.836398;37.453927;;;
Митинский 1-Й пер., напротив д. 17, г. Москва;55.84733;37.3824;;;
ул.Тверская, д.9, г. Москва;55.759245;37.611743;;;
Мира просп., д.186Г, (дублёр), из центра, г. Москва;55.829966;37.651273;;;
Каширское ш., д.108, к.1, г. Москва;55.609178;37.718135;;;
Митинский 1-Й пер., д.19, с.4, г. Москва;55.843692;37.376333;;;
ул.Владимирская 3-Я, д.6, г. Москва;55.76225;37.78543;;;
Варшавское ш., у вл.172А с.1, из центра, г. Москва;55.55497;37.587192;;;
ул.Дубравная, напротив д. 34/29, г. Москва;55.846639;37.360265;;;
Севастопольский просп., д.20А, из центра, г. Москва;55.682021;37.597926;;;
Щелковское ш., д.87, к.1, в центр, г. Москва;55.811816;37.820098;;;
ул.Фестивальная, д.48, г. Москва;55.864085;37.509583;;;
Глебовский мост, пересечение с Русаковской наб., г. Москва;55.801161;37.697835;;;
ул.Кравченко, д.12А, г. Москва;55.67756;37.516043;;;
Батайский проезд, д.47, г. Москва;55.643179;37.736684;;;
Волгоградский просп., д.119/22, пересечение с Жигулевской улицей, г. Москва;55.70571;37.764073;;;
ул.Металлургов, напротив д.48, г. Москва;55.760944;37.800732;;;
ул.Стромынка, д.22, Матросский мост, из центра, г. Москва;55.794802;37.703084;;;
Ленинский просп., в направлении центра, в районе д.4 к.3 по ул. Обручева, г. Москва;55.660706;37.505266;;;
Вернадского просп., (дублер), вл.10, из центра, г. Москва;55.686945;37.524097;;;
ул.Подольских Курсантов, вл.13А с.1, г. Москва;55.604708;37.632175;;;
Коломенский проезд, напротив д.10, г. Москва;55.666222;37.650217;;;
Дежнева проезд, д.10, г. Москва;55.87148;37.64229;;;
Батайский проезд, д.31, г. Москва;55.642928;37.7216;;;
ул.Подольских Курсантов, д.18, к.2, г. Москва;55.604426;37.632263;;;
ул.Салтыковская, д.102, с.2 по Большой Косинской ул., г. Москва;55.723537;37.859213;;;
Олимпийский просп., д.10, из ЦЕНТРА, г. Москва;55.778232;37.621576;;;
Рублевское ш., д.20, к.1, из центра, г. Москва;55.741749;37.428908;;;
Олимпийский просп., д.16, с.2, из центра, г. Москва;55.78272;37.624039;;;
Богородское ш., напротив д.2 по Большой Тихоновской ул., г. Москва;55.802294;37.685135;;;
ул.Люблинская, д.161, в центр, г. Москва;55.652717;37.743086;;;
Коломенский проезд, д.4, с.2, г. Москва;55.664846;37.642577;;;
ул.Дмитрия Ульянова, д.28, г. Москва;55.68561;37.57874;;;
ул.Таллинская, д.19, г. Москва;55.799665;37.405422;;;
ул.Новогиреевская, д.44/28, г. Москва;55.753039;37.798398;;;
ул.Люблинская, д.157, в центр, г. Москва;55.654505;37.742402;;;
Библиотечный проезд, д.2, с.1, из центра, г. Москва;55.882461;37.483383;;;
Богородское ш., д.17, стр.1 по ул. 6-й Лучевой просек, г. Москва;55.808809;37.68392;;;
Садовое кольцо, внешняя сторона, Садово-Черногрязская ул., д.3Б, стр1, г. Москва;55.766844;37.652526;;;
ул.Профсоюзная, напротив д.156, к.1, г. Москва;55.616067;37.501306;;;
Ленинский просп., д.45, в центр, г. Москва;55.703332;37.572657;;;
Севастопольский просп., напротив д.66, с.8, в центр, г. Москва;55.627869;37.540956;;;
Варшавское шоссе (дублёр), д.1, к.6 по ул. Газопровод, 2-е пересечение с ул. Россошанская, в центр, г. Москва;55.595492;37.602918;;;
Ленинский просп., д.144, к.2, из центра, г. Москва;55.65776;37.49965;;;
Новорязанское ш., Жулебинская эстакада, в центр, МГО № 090;55.676185;37.856638;;;
ул.Генерала Белобородова, д.32, г. Москва;55.82854;37.35373;;;
Олимпийский просп., д.22, из центра, г. Москва;55.78719;37.622513;;;
Богородское ш., напротив д.2А, стр.10 по ул. Короленко, в центр, г. Москва;55.798005;37.684174;;;
Ленинский просп., д.68, из центра, г. Москва;55.689156;37.546786;;;
ул.Фрязевская, пересечение с съездом с Новогиреевского путепровода, в центр, г. Москва;55.744238;37.815282;;;
ул.Народного Ополчения, д.37, к.1, П-опора, г. Москва;55.79038;37.488091;;;
ул.Ботаническая, напротив д.33, г. Москва;55.841166;37.588033;;;
ул.Краснодонская, г. Москва;55.689315;37.754515;;;
ул.Барышиха, д.14, г. Москва;55.840984;37.356916;;;
Волгоградский просп., д.187/16, к.2, в центр, г. Москва;55.69311;37.815789;;;
Олимпийский просп., напротив д.10, г. Москва;55.778088;37.621093;;;
ул.Профсоюзная, д.86, с.1, из центра, г. Москва;55.651829;37.534648;;;
ул.Стромынка, д.27, Матросский мост, в центр, г. Москва;55.795099;37.703394;;;
Варшавское ш., д.141, в центр, г. Москва;55.588541;37.599319;;;
ул.Верейская, напротив вл.11, г. Москва;55.709362;37.449248;;;
Бережковская наб., д.16, г. Москва;55.735989;37.562689;;;
Варшавское ш., у д.6А по ул. 1-я Мелитопольская, из центра, г. Москва;55.542122;37.583905;;;
Алтуфьевское ш., д.12, из центра, г. Москва;55.854578;37.584823;;;
Варшавское ш., у д.4, с.4 по 1-й Горловской ул., из центра, г. Москва;55.546771;37.585434;;;
ул.Верхние Поля, д.9, к.2, г. Москва;55.66527;37.74859;;;
Щелковское ш., д.60, дублёр, г. Москва;55.810219;37.803292;;;
Университетский просп., д.5, г. Москва;55.696092;37.553214;;;
ул.Саларьевская, вл.7, с.1, д. Саларьево, Московский п-е, г. Москва;55.622897;37.42657;;;
Андропова просп., д.37, в центр, г. Москва;55.6729;37.6633;;;
Щелковское ш., д.26Б, дублёр, из центра, г. Москва;55.809481;37.781639;;;
ул.Лобачевского, д.13, с.1, г. Москва;55.671189;37.492995;;;
ул.Салтыковская, пересечение с ул.Святоозёрская, г. Москва;55.713444;37.877341;;;
Мира просп., д.184, к.1, (дублер), г. Москва;55.827926;37.649282;;;
ул.Первомайская, напротив вл.75 по Измайловскому ш., из центра, г. Москва;55.789045;37.767384;;;
Мира просп., д.105, с.1, в центр, г. Москва;55.815971;37.638256;;;
ул.Липецкая, у д.2 по ул. 8-я Радиальная, г. Москва;55.61076;37.66392;;;
Дежнева проезд, д.10, стр.1 по Юрловскому пр-ду, г. Москва;55.869604;37.624479;;;
ул.Академическая Б., д.14, г. Москва;55.82179;37.526655;;;
ул.Профсоюзная, д.127Б, на эстакаде, в центр, г. Москва;55.620812;37.507249;;;
ул.Митинская, напротив д.20, г. Москва;55.842345;37.370326;;;
Ярославское ш., д.36, из центра, г. Москва;55.863048;37.696888;;;
Бережковская наб., напротив д.16, г. Москва;55.73579;37.56276;;;
Алтуфьевское ш., напротив д.14, г. Москва;55.855672;37.58438;;;
Алтуфьевское ш., д.79Ж, в центр, г. Москва;55.884391;37.586412;;;
Волоколамское ш., д.104, из центра, г. Москва;55.826054;37.428112;;;
ул.Хачатуряна, напротив д.12, к.1, г. Москва;55.858278;37.596777;;;
Новоданиловская наб., напротив д.2, к.1, г. Москва;55.702763;37.626527;;;
наб.Ганнушкина, пересечение с ул.Богородский Вал, г. Москва;55.801604;37.699343;;;
ул.Грина, напротив д.2, г. Москва;55.561911;37.585534;;;
ул.Вильгельма Пика, у д.8, г. Москва;55.840106;37.636423;;;
Новокуркинское ш., д.14, из центра, г. Москва;55.89638;37.400877;;;
Варшавское ш., д.143А, г. Москва;55.583984;37.597807;;;
ул.Гризодубовой, напротив д.2 по проезду Берёзовой Рощи, г. Москва;55.784751;37.520456;;;
Машкинское ш., г. Москва;55.914061;37.393603;;;
ул.Обручева, напротив д.30/1 с.2, г. Москва;55.657291;37.526659;;;
Новокуркинское ш., д.20, г. Москва;55.900043;37.398697;;;
Зеленый просп., д.57/14, г. Москва;55.753782;37.802862;;;
Рязанский просп., д.24, к.3, г. Москва;55.720405;37.776716;;;
ул.Верхние Поля, напротив д.23, в центр, г. Москва;55.657135;37.825241;;;
Новоясеневский просп., вл.3А, с.5, г. Москва;55.615474;37.513043;;;
ул.Шипиловская, напротив д.28, к ул. Домодедовская, г. Москва;55.619417;37.713217;;;
ул.Хачатуряна, д.20, г. Москва;55.862251;37.60399;;;
Новоясеневский просп., д.4, с.1, г. Москва;55.61464;37.51381;;;
Щелковское ш., у д.84, из центра, г. Москва;55.811373;37.818732;;;
Зеленый просп., д.38/19, г. Москва;55.753519;37.803502;;;
ул.Марксистская, д.5, г. Москва;55.736565;37.664214;;;
ул.Хачатуряна, д.13, г. Москва;55.86164;37.60302;;;
Алтуфьевское ш., напротив д.40, в центр, г. Москва;55.871411;37.585406;;;
Мичуринский просп., напротив д.6 с.15, г. Москва;55.71387;37.532737;;;
ул.Кулакова, д.23, г. Москва;55.80347;37.3928;;;
Бескудниковский бул., д.11, к.1, г. Москва;55.862529;37.561577;;;
ул.Поляны, перед вл.4 по Куликовской ул., в центр, г. Москва;55.576684;37.567099;;;
ул.Первомайская, вл.75 по Измайловскому ш., в центр, г. Москва;55.789028;37.766526;;;
ул.Широкая, д.17, к.1, г. Москва;55.887623;37.667523;;;
Нахимовский просп., вл.10, с.1, г. Москва;55.666202;37.597354;;;
ул.Широкая, д.59А по ул. Корнейчука, г. Москва;55.890126;37.625089;;;
Аминьевское ш., д. 34, к Рублевскому шоссе, г. Москва;55.720628;37.450751;;;
Аминьевское ш., напротив вл. 17, к Рублевскому шоссе, г. Москва;55.708952;37.455254;;;
ул.Широкая, д.20, г. Москва;55.887419;37.66794;;;
Аминьевское ш., вл. 4Б, к Рублевскому шоссе, г. Москва;55.697809;37.462445;;;
ул.Народного Ополчения, д.31, П-опора, г. Москва;55.7845;37.481788;;;
Нахимовский просп., д.21, с.1, г. Москва;55.666474;37.595935;;;
Осташковская ул., напротив д. 26, в центр, г. Москва;55.889976;37.674176;;;
Союзный просп., д.24 по Свободному проспекту, г. Москва;55.74959;37.814873;;;
Хорошевское ш., д.66, г. Москва;55.777547;37.52722;;;
Хорошевское ш., д.17, в центр, г. Москва;55.776499;37.531888;;;
Можайское ш., д.29, дублер, г. Москва;55.719769;37.424036;;;
ул.Нижегородская, д.50, из центра, г. Москва;55.73599;37.701163;;;
Новодачное ш., у д.161Б по Дмитровскому ш., из центра, г. Москва;55.90514;37.538842;;;
Новодачное ш., напротив д.161Б по Дмитровскому ш., в центр, г. Москва;55.904344;37.53912;;;
Бережковская наб., напротив д.8, в центр, г. Москва;55.739113;37.566891;;;
Дербеневская наб., напротив д.3, г. Москва;55.72691;37.65499;;;
Аминьевское ш., вл. 27, стр.1, от Рублевского шоссе, г. Москва;55.716602;37.451981;;;
ул.Шереметьевская, напротив д.23/2 по 9-му проезду Марьиной рощи, из центра, г. Москва;55.80151;37.61594;;;
Каширское ш., дублер, первое пересечение с ул.Ясеневая, в центр, г. Москва;55.601359;37.72288;;;
Можайское ш., напротив д.4, к.1, в центр, г. Москва;55.722684;37.446708;;;
ул.Шереметьевская, вл.3, стр.1 по 8-му проезду Марьиной Рощи, г. Москва;55.80089;37.61566;;;
Энтузиастов ш., д.17, г. Москва;55.752313;37.720634;;;
Проектируемый проезд №5997, у д.30 к.1 по ул. Перекопская, г. Москва;55.663426;37.569412;;;
ул.Бутырская, д.67, с.1, в центр, г. Москва;55.80206;37.583026;;;
Новорязанское ш., дублер, пересечение с ул. Маршала Полубоярова из центра, г. Москва;55.675644;37.857225;;;
Рязанский просп., д.45, к.1, дублёр, г. Москва;55.726615;37.760112;;;
ул.Реутовская, д.26/21, г. Москва;55.732468;37.830014;;;
Алтуфьевское ш., д.40, из центра, г. Москва;55.871541;37.585863;;;
ул.Лескова, д.15, с.2, г. Москва;55.896726;37.610183;;;
ул.Академика Семенова, напротив д.5, г. Москва;55.543635;37.509203;;;
ул.Бартеневская, напротив д.55, г. Москва;55.547799;37.518709;;;
Воробьевское ш., напротив д.42 по ул. Косыгина, из центра, г. Москва;55.727944;37.53889;;;
Щелковское ш., д.92, к.2, (дублер), г. Москва;55.812008;37.824579;;;
Дмитровское ш., д.29, к.1, в центр, г. Москва;55.827793;37.572661;;;
Ярославское ш., д.59, (дублёр), г. Москва;55.863892;37.697449;;;
Рязанский просп., д.47, к.1, дублер, г. Москва;55.725678;37.76296;;;
Бронная м., напротив д. 32, г. Москва;55.763964;37.593396;;;
Тверской бул., напротив д.1, г. Москва;55.757532;37.597656;;;
Звенигородское ш., д.7 стр.2 по ул. 1905 года, в центр, г. Москва;55.763316;37.560453;;;
ул.Планетная, напротив д.9, г. Москва;55.799606;37.550747;;;
ул.Зеленоградская, д.31, к.1, г. Москва;55.875389;37.493704;;;
Звездный бул., д.9, с.1, г. Москва;55.814123;37.630395;;;
ул.Подольских Курсантов, напротив д.1, к.2, с.2 по Мелитопольской ул., в центр, г. Москва;55.584799;37.636666;;;
Аминьевское ш., вл.17, от Рублевского шоссе, г. Москва;55.708701;37.455037;;;
ул.Планетная, напротив д.33, г. Москва;55.803577;37.544316;;;
Каширское ш., напротив д. 55А, из центра, г. Москва;55.637644;37.691809;;;
ул.Марксистская, напротив д.5, из центра, г. Москва;55.736683;37.663623;;;
Аминьевское ш., напротив д.4А, от Рублевского ш., г. Москва;55.698588;37.461028;;;
Ростовская наб., напротив д.23 по 7-му Ростовскому переулку, г. Москва;55.742151;37.572989;;;
ул.Живописная, д.3, г. Москва;55.781245;37.455462;;;
ул.Коштоянца, д.18, г. Москва;55.674168;37.47938;;;
Косинское ш., напротив д.14 по ул.Дмитриевского, г. Москва;55.7074;37.885992;;;
Каширское ш., дублер, д.1, к.1 по Борисовскому проезду, г. Москва;55.624556;37.711167;;;
Каширское ш., д.31, с.2, г. Москва;55.649388;37.66267;;;
ул.Тарусская, д.18, к.2, из центра, г. Москва;55.601357;37.529094;;;
ул.Пречистенка, напротив д.4, г. Москва;55.744452;37.60144;;;
Каширское ш. (дублёр), д.80, из центра, г. Москва;55.624487;37.710074;;;
Волгоградский просп., дублер, д.2/15 по ул.Окская, г. Москва;55.708273;37.746815;;;
ул.Сельскохозяйственная, д.48, г. Москва;55.85269;37.626153;;;
Каширское ш., дублер, д. 65, 2-е пересечение с ул. Ясеневая, в центр, г. Москва;55.601448;37.723039;;;
ул.Свободы, напротив д.87, пересечение с Алёшкинским проездом, г. Москва;55.865966;37.447346;;;
ул.Берзарина, д.5А, с.1, по ул. Рогова, г. Москва;55.791262;37.460006;;;
Пролетарский просп., д.19, к.1, в центр, г. Москва;55.641408;37.655641;;;
ул.Подольских Курсантов, у д.1, к.2, по Мелитопольской ул., из центра, г. Москва;55.582921;37.637139;;;
Щелковское ш., д.98/57, г. Москва;55.81272;37.829009;;;
ул.Абельмановская, напротив д. 9, стр. 1 по ул. Марксистская, г. Москва;55.734384;37.669209;;;
Кутузовский просп., д.69, к.1, в центр, г. Москва;55.724471;37.453696;;;
Энтузиастов ш., д.5, г. Москва;55.74783;37.69527;;;
Преображенская пл., вл.11А, с.1, г. Москва;55.795953;37.714025;;;
Энтузиастов ш., д.23, к.14, в центр, г. Москва;55.7545;37.7318;;;
Вернадского просп., д.123, в центр, г. Москва;55.655765;37.480412;;;
Энтузиастов ш., (дублер), д.63, в центр, г. Москва;55.77566;37.83656;;;
ул.Профсоюзная, у д.128, к.2, из центра, г. Москва;55.629531;37.516728;;;
ул.Поляны, напротив д.39, г. Москва;55.551479;37.547708;;;
Ломоносовский просп., вл. 27Д, г. Москва;55.703218;37.518669;;;
Бесединское ш., с.30Б, г. Москва;55.619624;37.768659;;;
Ломоносовский просп., напротив д.27 к.1, г. Москва;55.697173;37.52955;;;
Ломоносовский просп., напротив д.29, к.1, г. Москва;55.70432;37.51711;;;
Ломоносовский просп., д.27, г. Москва;55.69959;37.524938;;;
Проектируемый проезд № 598, напротив вл. 38А, по 1-му Красковскому проезду, г. Москва;55.70738;37.909399;;;
Мира просп., напротив д.98, с.1, в центр, г. Москва;55.79946;37.635118;;;
Аминьевское ш., д.16, г. Москва;55.713729;37.453525;;;
Севастопольский просп., д.11Е, в центр, г. Москва;55.688812;37.604628;;;
Бронная м., напротив д.2, г. Москва;55.758589;37.59848;;;
ул.Бориса Галушкина, д.17, г. Москва;55.822674;37.659599;;;
ул.Тимирязевская, д.39 по Пасечной ул., г. Москва;55.828575;37.553906;;;
Марьинский парк, д.35, г. Москва;55.665632;37.786974;;;
ул.Подольских Курсантов, напротив д.10, с.142 по Востряковскому пр-ду, из центра, г. Москва;55.578878;37.639117;;;
ул.Левобережная, д.4, к.3, г. Москва;55.870565;37.475208;;;
Большой Купавенский проезд, вл. 14, 250 м. в сторону Проектируемого проезда № 252 , г. Москва;55.783598;37.820717;;;
ул.Бакинская, д.9, с.2, г. Москва;55.624373;37.657246;;;
Бусиновский проезд, вл. 7, г. Москва;55.890016;37.500181;;;
Варшавское ш., напротив д.190 к.2, г. Москва;55.550437;37.587058;;;
ул.Талдомская, д.1, г. Москва;55.869228;37.515492;;;
Ростокинский проезд, д.3, с.3, г. Москва;55.819479;37.670345;;;
Академика Сахарова просп., д.8 по Уланскому переулку, в центр, г. Москва;55.767706;37.639258;;;
Панфиловский просп., напротив д.46, г. Зеленоград, г. Москва;55.989867;37.184517;;;
ул.Александровка, к.1420, г. Зеленоград, г. Москва;55.98915;37.145542;;;
Новокуркинское ш., напротив д.6, к.1 по ул. Соловьиная роща, г. Москва;55.890824;37.404275;;;
Проспект ветеранов, у д.2, стр.61 по Краснобогатырской ул., из центра, г. Москва;55.811346;37.691587;;;
ул.Алабяна, д.25/37, г. Москва;55.79791;37.501099;;;
ул.Осташковская, д.28, из центра, г. Москва;55.891206;37.674297;;;
Дежнева проезд, напротив д.38А, г. Москва;55.869696;37.627007;;;
Сиреневый бул., д.34, к.1, г. Москва;55.802741;37.805498;;;
ул.Дмитрия Ульянова, д.25, г. Москва;55.685883;37.579806;;;
Солнечная аллея, к.803, г. Зеленоград, г. Москва;55.979904;37.191313;;;
ул.Матвеевская, д.16, к.1, г. Москва;55.702464;37.470876;;;
ул.Нерис Саломеи, д.12, с.2, г. Москва;55.851802;37.395895;;;
ул.1905 Года, д.25, г. Москва;55.768618;37.557227;;;
ул.Соколиной Горы 8-Я, д.26А, с.2, г. Москва;55.76842;37.741397;;;
Академика Сахарова просп., д.39, с.1, из центра, г. Москва;55.767608;37.639522;;;
Каширское ш., (дублер), д. 86 к.4, г. Москва;55.619745;37.712481;;;
ул.Нерис Саломеи, напротив д.12 с.2, г. Москва;55.851481;37.397118;;;
Новоспасский проезд, у д.3, к.1 по Новоспасскому переулку, из центра, г. Москва;55.734752;37.656975;;;
Дмитровское ш., д.2, с.2 по ул. Линии Октябрьской Железной дороги, из центра, МГТ № 142, г. Москва;55.838274;37.571481;;;
Панфиловский просп., д.46, г. Зеленоград, г. Москва;55.989726;37.18493;;;
Рублевское ш., д.38, к.1, дублер, г. Москва;55.749449;37.413784;;;
ул.Подольских Курсантов, напротив д.10, с.142 по Востряковскому пр-ду, в центр, г. Москва;55.578625;37.639529;;;
Олимпийский просп., д.7, к.1, в центр, г. Москва;55.78563;37.622242;;;
ул.Советской Армии, напротив д.13, стр.2, из центра, г. Москва;55.790634;37.61651;;;
Мичуринский просп., д.51, на эстакаде, в центр, г. Москва;55.686418;37.478586;;;
Ленинский просп., у д.1 по ул. Саморы Машела, г. Москва;55.654137;37.492748;;;
Дмитровское ш., напротив д.132, в центр, г. Москва;55.938902;37.54474;;;
ул.Лобачевского, вл.3, г. Москва;55.664181;37.507647;;;
Ленинский просп., д.154, из центра, г. Москва;55.652619;37.488755;;;
ул.Саларьевская, д.48 по ул.Картмазовская, д. Саларьево, Московский п-е, г. Москва;55.619787;37.422685;;;
Мира просп., д.188, из центра, г. Москва;55.833796;37.655062;;;
Мост Лужники, МГТ № 230, из центра, г. Москва;55.710888;37.559748;;;
ул.Лухмановская, напротив д.11Б, г. Москва;55.71937;37.900622;;;
ул.Тропаревская, д.46, к.3 по ул. Академика Анохина, г. Москва;55.65614;37.469105;;;
ул.Бартеневская, д.17, г. Москва;55.551253;37.531628;;;
Нагатинская наб., напротив д. 48, г. Москва;55.688162;37.678994;;;
Садовое кольцо, внутренняя сторона, ул. Зацепский Вал, д. 14, г. Москва;55.731443;37.637642;;;
ул.Бутырская, д.2/18, г. Москва;55.793953;37.585967;;;
ул.Профсоюзная, у д. 39 по ул. Генерала Тюленева, г. Москва;55.614646;37.49811;;;
ул.Каскадная, д.9, с.Г, г. Москва;55.706838;37.861818;;;
Ленинский просп., д.53, г. Москва;55.698633;37.564223;;;
Мост Лужники, МГТ № 223, в центр, г. Москва;55.71068;37.55989;;;
Андропова просп., напротив д.34Б, по Каширскому ш., в центр, г. Москва;55.65275;37.65454;;;
Комсомольский просп., д.35, г. Москва;55.723305;37.577097;;;
ул.Череповецкая, 150 м от ул. Псковская, г. Москва;55.89811;37.55932;;;
Ленинградское ш., напротив д. 80, с.1, г. Москва;55.846751;37.475878;;;
Косинское ш., д.16А по ул.Дмитриевского, г. Москва;55.707433;37.88856;;;
Дмитровское ш., д.77А, г. Москва;55.859913;37.555047;;;
Щелковское шоссе (дублер), д. 24, из центра, г. Москва;55.80855;37.776386;;;
Пролетарский просп., д.2, из центра, г. Москва;55.648032;37.656823;;;
Новогиреевский п-д, напротив д.2А, с.4 по Кетчерской ул. к Вешняковской ул., г. Москва;55.740751;37.816111;;;
ул.Талдомская, д.2Б, г. Москва;55.868996;37.515974;;;
ул.Красных Зорь, д.37, г. Москва;55.72628;37.43222;;;
Краснопресненская наб., вл. 5 по Мантулинской ул., из центра, г. Москва;55.751911;37.552621;;;
Маршала Жукова просп., д.35, к.1, в центр, г. Москва;55.775523;37.473987;;;
Новоухтомское ш., напротив д.32 по ул. Муромская, г. Москва;55.71474;37.845921;;;
Дмитровское ш., д.63, к.1, (дублер), в центр, г. Москва;55.84785;37.56728;;;
Окружной проезд, напротив д.30, г. Москва;55.774654;37.743957;;;
Вернадского просп., д.111, в центр, г. Москва;55.660194;37.481934;;;
Марьинский парк, д.1, г. Москва;55.654341;37.777973;;;
Сыромятническая наб., д.11, с.65, г. Москва;55.75432;37.67229;;;
ул.Вешняковская, д.8, к.1, г. Москва;55.73632;37.82757;;;
ул.Перерва, д.74, г. Москва;55.669663;37.776053;;;
Мира просп., д.3, к.1, в центр, г. Москва;55.77328;37.632211;;;
Ганнушкина наб., д.3 с.27 по ул. Богородский Вал, из центра, г. Москва;55.80364;37.70072;;;
Семеновская наб., д.11, с.1, г. Москва;55.77574;37.70081;;;
Загородное ш., д.1, к.1, в центр, г. Москва;55.69949;37.61441;;;
Ленинградское ш., д.43, в центр, г. Москва;55.84046;37.47986;;;
Ростокинский проезд, напротив д.3 с.3, г. Москва;55.819517;37.669517;;;
ул.Сайкина, у д.9 по ул. Трофимова, из центра, г. Москва;55.702948;37.667001;;;
Варшавское ш., у д.1В, по ул. Грина, в центр, г. Москва;55.562949;37.594743;;;
ул.Перерва, напротив д.72, г. Москва;55.669427;37.775183;;;
Шипиловский проезд, мост через р. Городня, г. Москва;55.627427;37.691932;;;
Дмитровское ш., напротив д.165Е, к.6, из центра, г. Москва;55.925163;37.546514;;;
Новоспасский проезд, у д.7/4 по ул. Гвоздева, в центр, г. Москва;55.734914;37.657249;;;
ул. Александры Монаховой, напротив д.15, к.1 по Фитаревской ул., Сосенское п-е, г. Москва;55.567859;37.479604;;;
Ярославское ш., д.12, к.2, из центра, г. Москва;55.854462;37.681844;;;
Ленинский просп., у д. 30, из центра, г. Москва;55.709922;37.584119;;;
Нагатинская наб., д.6, к.1, г. Москва;55.68344;37.636831;;;
ул.Дубнинская, д.2, к.6, г. Москва;55.857656;37.567474;;;
ул.Свободы, напротив вл.103, из центра, г. Москва;55.874861;37.434174;;;
ул.Подольских Курсантов, напротив д.36, г. Москва;55.588085;37.636544;;;
ул.Академическая Б., напротив д.57, г. Москва;55.83862;37.5446;;;
Университетский просп., д.6, к.1, г. Москва;55.698066;37.551569;;;
ул.Вешняковская, напротив д.8, к.1, г. Москва;55.73683;37.8269;;;
ул.Вешняковская, д.2, г. Москва;55.73808;37.820345;;;
ул.Машиностроения 2-Я, д.19, с.89, по ул. Шарикоподшипниковская, г. Москва;55.716411;37.684563;;;
Рязанский просп., д.16, с.1, из центра, г. Москва;55.722941;37.769322;;;
ул.Садовая-Триумфальная, д.22/31, г. Москва;55.772114;37.603654;;;
ул.Академика Королева, д.5, г. Москва;55.821335;37.626457;;;
ул.Перерва, д.56/2, г. Москва;55.658387;37.747902;;;
Можайское ш., напротив д.26, дублер, из центра, г. Москва;55.720192;37.423649;;;
СЗХ, Толбухина ул., д. 6 по ул. Маршала Неделина, движение от Молодогвардейской ул., г. Москва;55.725316;37.40289;;;
Саввинская наб., д.4, с.2, по Большому Саввинскому пер., г. Москва;55.735555;37.566597;;;
ул.Дмитрия Ульянова, выезд на Ленинский проспект, г. Москва;55.694656;37.5571;;;
Дмитровское ш., напротив д.165Е, к.6, в центр, г. Москва;55.925223;37.546114;;;
ул.1905 Года, д.10А, г. Москва;55.76726;37.55908;;;
ул.Воронцовская, д.25, с.4, в центр, г. Москва;55.73551;37.66072;;;
ул.Подольских Курсантов, д.24Д, с.1, г. Москва;55.594555;37.6357;;;
Варшавское ш., д.53, к.1, г. Москва;55.677183;37.625725;;;
ул.Вешняковская, д.16, г. Москва;55.72581;37.82815;;;
Краснопресненская наб., напротив вл.5, по Мантулинской ул., в центр, г. Москва;55.751988;37.553136;;;
ул.Свободы, д.45, с.1, г. Москва;55.845867;37.454194;;;
Сколковское ш., напротив д.2, из центра, г. Москва;55.70839;37.40471;;;
Рублевское ш., дублер, вл. 52А, из центра, г. Москва;55.754864;37.402541;;;
Электродный проезд, напротив д. 34 по ул. Окружной проезд, г. Москва;55.769087;37.747984;;;
Варшавское ш., д.170Ж, из центра, г. Москва;55.559374;37.589895;;;
Алтуфьевское ш., д.79Д, г. Москва;55.88809;37.58665;;;
Варшавское ш., 180м к ул. Грина, из центра, г. Москва;55.561887;37.59323;;;
Рубцовская наб., д.4, к.2, г. Москва;55.77558;37.6996;;;
ул.Витебская, д.8, к.1, г. Москва;55.71255;37.408899;;;
Бесединское ш., напротив вл.15, из центра, г. Москва;55.62419;37.75775;;;
Мира просп., напротив вл.119 стр.532 (территория ОАО ВДНХ), г. Москва;55.83526;37.63024;;;
ул.Профсоюзная, д.1Б с.6 по ул. Теплый стан, г. Москва;55.617449;37.502587;;;
Кутузовский просп., напротив д.11 к.1 по ул. Славянский бульвар, из центра, г. Москва;55.727237;37.466147;;;
Балаклавский просп., напротив д.46, к.1, из центра, г. Москва;55.647303;37.573028;;;
ул. Первомайская, д.1, в центр, г. Москва;55.790179;37.770535;;;
Бесединское ш., вл.15, в центр, г. Москва;55.624298;37.758159;;;
Дмитровское ш., д.132, из центра, г. Москва;55.938956;37.545229;;;
ТТК, внутренняя сторона, д. 14 по ул. Автозаводская, г. Москва;55.703658;37.647438;;;
Косинское ш., напротив д.11 по ул.Дмитриевского, из центра, г. Москва;55.707509;37.892561;;;
ул.Витебская, д.9, с.29, г. Москва;55.71224;37.409348;;;
Ломоносовский просп., д.25, к.1, г. Москва;55.694125;37.534343;;;
ул.Вешняковская, вл.16, г. Москва;55.728821;37.829189;;;
Русаковская наб., д.1/3, к.13, по ул. Рубцовско-Дворцовая, г. Москва;55.78674;37.69832;;;
Cъезд с внешней стороны МКАД (5А) на Носовихинское шоссе, у д. 9 по ул. Суздальская, г. Москва;55.743999;37.848823;;;
Варшавское ш., д. 128, к.1, (дублёр), пересечение с ул. Сумская, г. Москва;55.622426;37.614371;;;
Пятницкое ш., д.8, г. Москва;55.838517;37.387354;;;
ул.Чертановская, пересечение с Балаклавским просп., в центр, г. Москва;55.641752;37.605921;;;
Новодачное ш., пересечение с ул.Новодачная, из центра, г. Москва;55.93238;37.524928;;;
Кутузовский просп., д.9 к.1 по Славянскому бульвару, в центр, г. Москва;55.72716;37.467207;;;
Садовое кольцо, внутренняя сторона, Смоленский бульвар, д.22/14, г. Москва;55.742534;37.584508;;;
ул.Профсоюзная, д.154А, с.2, на эстакаде, из центра, г. Москва;55.62174;37.50782;;;
Садовое кольцо, внешняя сторона, Садовая-Спасская ул., д.1/2, с.7, г. Москва;55.771716;37.639577;;;
ул.Удальцова, у д.65, г. Москва;55.679255;37.501387;;;
Рублевское ш., д.14, к.1, из центра, г. Москва;55.738986;37.434614;;;
ул.Талалихина, д.6, с.1, г. Москва;55.736854;37.676128;;;
ул.Маши Порываевой, д.34, из центра, г. Москва;55.772815;37.647348;;;
Мира просп., д.181, г. Москва;55.838876;37.660757;;;
Ленинский просп., д.9, с.3, в центр, г. Москва;55.724306;37.605017;;;
Мира просп., д.146, (дублер), г. Москва;55.82147;37.642494;;;
Рублевское ш., (дублер), д.9 по Звенигородской ул., из центра, г. Москва;55.733896;37.446064;;;
Тверской бул., д.13, с.1, г. Москва;55.760387;37.600312;;;
ул.Лескова, д.3Г, г. Москва;55.89847;37.591262;;;
Союзный просп., д.17, с.2, г. Москва;55.749672;37.814236;;;
ул.Ткацкая, д.45, г. Москва;55.786868;37.738861;;;
Нагатинская наб., д.2, с.32, из центра, г. Москва;55.684581;37.631596;;;
ул.Лубянка Б., д. 16/13 по Большому Кисельному переулку, г. Москва;55.764379;37.629633;;;
Мира просп., д.126, на эстакаде, из центра, г. Москва;55.817046;37.638959;;;
ТТК, внутренняя сторона, д.17, с.6, по 2-му Крестовскому пер., г. Москва;55.792325;37.639772;;;
Севастопольский просп., напротив д.45, к.1, по ул. Островитянова, в центр, г. Москва;55.633559;37.54171;;;
ул.Бойцовая, д.19/16 по бул.Маршала Рокоссовского, г. Москва;55.813701;37.721195;;;
Энтузиастов ш., дублер, д.27, к.13А по ул. Буракова, в центр, г. Москва;55.75587;37.737597;;;
ул.Свободы, д.15/10, г. Москва;55.83106;37.45304;;;
ул.Маши Порываевой, д.7, с.4, в центр, г. Москва;55.774262;37.649862;;;
Кутузовский просп., д.1 по ул. Давыдковская, в центр, г. Москва;55.729572;37.480437;;;
Преображенская наб., д.21 с.17 по ул. Электрозаводская, г. Москва;55.78612;37.69894;;;
ул.Нижегородская, напротив д.50, в центр, г. Москва;55.73588;37.702573;;;
Сколковское ш., на эстакаде, напротив д. 25, в центр, г. Москва;55.708422;37.405012;;;
Варшавское ш., д.238, из центра, г. Москва;55.530133;37.580451;;;
ул.Профсоюзная, напротив д. 39 по ул. Генерала Тюленева, в центр, г. Москва;55.614253;37.498126;;;
Волгоградский просп., напротив д.180А, в центр, г. Москва;55.690756;37.821707;;;
ул.Профсоюзная, у д.51/21 по Нахимовскому проспекту, в центр, г. Москва;55.676339;37.561402;;;
Волгоградский просп., д.180А, из центра, г. Москва;55.690546;37.821684;;;
Хорошевское ш., вл.2, к.2 по пр-ту Маршала Жукова, из центра, г. Москва;55.776972;37.506102;;;
Ленинградское ш., (мост через канал им. Москвы), из центра, г. Москва;55.871431;37.458424;;;
Ленинградский просп., д.30, с.1, из центра, г. Москва;55.784566;37.568;;;
Севастопольский просп., д.17А, с.1, в центр, г. Москва;55.680214;37.59656;;;
ул.Таманская, д.4, из центра, г. Москва;55.779967;37.443536;;;
ул.Молодогвардейская, напротив д.38, к.1, г. Москва;55.733786;37.416038;;;
Чистопрудный бул., д.7/2, г. Москва;55.763142;37.642934;;;
ул.Обручева, д.52, г. Москва;55.65049;37.55637;;;
ул.Широкая, д.16, г. Москва;55.88748;37.664873;;;
Яна Райниса бул., напротив д.1, из центра, г. Москва;55.850011;37.434057;;;
ТТК, внутреннее кольцо, напротив д.11, с. 24, по ул. Золоторожский Вал, г. Москва;55.750854;37.696757;;;
Балаклавский просп., напротив д.34, к.3, г. Москва;55.64555;37.57925;;;
ул.Крылатская, д.8, г. Москва;55.75722;37.432619;;;
ТТК, внутреннее кольцо, Сущевский Вал, д.62, г. Москва;55.792554;37.624569;;;
ул.Широкая, д.1, к.1, г. Москва;55.888047;37.64913;;;
ТТК, внешнее кольцо, Беговая ул., д.7, г. Москва;55.778621;37.55678;;;
Симоновский вал, д.17, к.1, в центр, г. Москва;55.721257;37.663754;;;
ТТК, внутреннее кольцо, Беговая ул., д.20, к.1, г. Москва;55.778388;37.557022;;;
ул.Лескова, д.25, г. Москва;55.89133;37.621423;;;
Ленинградское ш., напротив д.1 по Прибрежному проезду, в центр, г. Москва;55.87125;37.45795;;;
ул.Лескова, д.5, г. Москва;55.898396;37.594051;;;
ул.Подольских Курсантов, напротив д.26, г. Москва;55.592685;37.635367;;;
Хорошевское ш., д.22, из центра, г. Москва;55.77408;37.54278;;;
ул.Крылатская, напротив д.31 к.1, г. Москва;55.771695;37.408148;;;
ул.Череповецкая, у вл.1 по Лианозовскому проезду, г. Москва;55.898242;37.559212;;;
Лианозовский проезд, напротив д.14 с.3, г. Москва;55.900727;37.544824;;;
Варшавское ш., напротив д.1 к.7 по ул. Грина, в центр, г. Москва;55.55718;37.588292;;;
Садовое кольцо, внутр. сторона, Садовая-Черногрязская ул., напротив д. 5/9, г. Москва;55.766365;37.652737;;;
ул.Вяземская, д.1 по ул.Беловежская, г. Москва;55.714758;37.402937;;;
Куркинское ш., д.42, г. Москва;55.885489;37.395778;;;
Варшавское ш., напротив д. 262, из центра, г. Москва;55.527337;37.579561;;;
ул.Полярная, д.15, к.1, г. Москва;55.87564;37.636851;;;
Варшавское ш., напротив д.214, с.5, в центр, г. Москва;55.533464;37.581849;;;
Яна Райниса бул., д.1, в центр, г. Москва;55.850023;37.434069;;;
Варшавское ш., напротив вл.266, с.1, в центр, г. Москва;55.525693;37.579494;;;
Рязанский просп., напротив д. 24, к.3, г. Москва;55.720776;37.776445;;;
Симоновский вал, д.6, из центра, г. Москва;55.727701;37.662511;;;
ул.Фестивальная, д.29 по ул.Смольная, г. Москва;55.858155;37.484902;;;
Рязанский просп., д.22, к.2, г. Москва;55.721751;37.772777;;;
ул.Свободы, напротив д. 80, г. Москва;55.87493;37.43344;;;
ул.Народного Ополчения, д.44, к.1, г. Москва;55.792264;37.491538;;;
ул.Широкая, д.31В, по Полярной ул., г. Москва;55.88922;37.6345;;;
Севастопольский просп., д.85, с.1, в центр, г. Москва;55.647637;37.562686;;;
ул. Хлобыстова, напротив д.5, въезд в ТПУ «Выхино», из центра, г. Москва;55.716405;37.81363;;;
Мира просп., д.79, в центр, г. Москва;55.79096;37.63456;;;
Волгоградский просп., д.21, с.4, на эстакаде, в центр, г. Москва;55.72636;37.684898;;;
Мичуринский просп., д.38, г. Москва;55.697016;37.496864;;;
Андропова просп., напротив д.48, в центр, г. Москва;55.669239;37.662342;;;
Волгоградский просп., съезд на ул. Люблинская, из центра, МГО № 314, г. Москва;55.709476;37.729368;;;
Рублевское ш., напротив д.22, к.1, в центр, г. Москва;55.742059;37.427734;;;
Можайское ш., д.41, к.1, дублер в центр, г. Москва;55.717481;37.411577;;;
Краснопресненская наб., д.14, с.18, г. Москва;55.7487;37.545778;;;
Щелковское ш., д.61, в центр, г. Москва;55.81015;37.792957;;;
ул.Соколово-Мещерская, д.14, г. Москва;55.896265;37.388461;;;
Симоновский вал, д.18, из центра, г. Москва;55.721411;37.66348;;;
Лианозовский проезд, напротив д.1Г, г. Москва;55.89779;37.55522;;;
ул.Липецкая, д.10, по ул. 6-ая Радиальная, из центра, г. Москва;55.610084;37.664148;;;
Щелковское ш., д.79, к.1, в центр, г. Москва;55.81056;37.807485;;;
Хорошевское ш., д.5, к.2, г. Москва;55.774856;37.538583;;;
Новоданиловская наб., напротив д. 10, г. Москва;55.697163;37.626271;;;
Зеленый просп., д.7, г. Москва;55.749586;37.775592;;;
а/д от Минского ш. до Киевского ш., напротив д.1, соор.1, дп Кокошкино, Кокошкино п-е, г. Москва;55.58539;37.163044;;;
МКАД, 21 км 135 м, П-опора, внешняя сторона, г. Москва;55.60674;37.762561;;;
а/д ФАД М-3 Украина - г.о. Троицк, д.26а по ул. Садовая, д. Поповка, Первомайское п-е, г. Москва;55.514553;37.240292;;;
Ленинградский просп., д.50, (выезд из Ходынского тоннеля из центра), г. Москва;55.796511;37.541206;;;
Кутузовский просп., д.3Е, стр.2 по площади Победы, г. Москва;55.735628;37.514566;;;
Ленинский просп., д.146, из центра, г. Москва;55.656133;37.496386;;;
МКАД, 98км 120м, внутренняя сторона, г. Москва;55.855371;37.778329;;;
МКАД, 100км, внутренняя сторона, МГО № 157, г. Москва;55.844554;37.799326;;;
Кутузовский просп., П-опора, 471 м. от ул. Минская, из центра, г. Москва;55.733146;37.498725;;;
Кутузовский просп., П-опора, 471 м. от ул. Минская, г. Москва;55.733038;37.498789;;;
Мичуринский просп., (Лобачевская эстакада), напротив д. 51, из центра, г. Москва;55.686951;37.479199;;;
Кутузовский просп., П-опора, 471 м. от ул. Минская, в центр, г. Москва;55.732938;37.498857;;;
МКАД,98км 800м, внешняя сторона, г. Москва;55.851031;37.787422;;;
Ленинградский просп., д.35, (выезд из ходынского тоннеля в центр), г. Москва;55.790582;37.553952;;;
МКАД, 96км, внутренняя сторона, г. Москва;55.868491;37.752703;;;
МКАД, 8 км 800м, П-опора, внутренняя сторона, г. Москва;55.701751;37.831464;;;
Сущевский вал, д.55, (ТТК, внешняя сторона), г. Москва;55.793273;37.614209;;;
Проектируемый проезд № 4931, напротив д.1, к.1 по ул. Матвеевской, г. Москва;55.700626;37.466555;;;
ул.Школьная, д.3А, дп Кокошкино, Кокошкино п-е, г. Москва;55.599948;37.159292;;;
Кутузовский просп., МГО №008, из центра, г. Москва;55.736154;37.515092;;;
Ленинградский просп., д.39, к.А, (въезд в Ходынский тоннель) в центр, г. Москва;55.796143;37.541399;;;
Северо-восточная хорда, д.3 по Зеленоградской ул., г. Москва;55.862103;37.523181;;;
"Калужское ш., 35 метров до ООТ ""Столбово"", из центра, Сосенское п-е, г. Москва";55.577342;37.461498;;;
ул.Черкизовская Б., д.10, к.1, из центра, г. Москва;55.797397;37.723854;;;
Варшавское ш., д.153, в центр,  съезд на внутр. сторону МКАД, г. Москва;55.577408;37.59651;;;
Северо-Восточная хорда, у д.13 по улице Аносова, г. Москва;55.741251;37.757229;;;
Ленинградский просп., напротив д.35 (въезд в Ходынский тоннель из центра), г. Москва;55.790739;37.554295;;;
МКАД, 45км 460м, внешняя сторона, П-опора, г. Москва;55.646732;37.450365;;;
МКАД, 70км 270м, внешняя сторона, П-опора, г. Москва;55.856663;37.39613;;;
МКАД, 43 км 200м, внутренняя сторона, г. Москва;55.62717;37.473587;;;
съезд с ТТК на Шмитовский проезд (внешняя сторона), под эстакадой, напротив д.35, с.1 по Шмитовскому проезду, г. Москва;55.754094;37.532097;;;
МКАД, 83км 690м, внешняя сторона, П-опора, г. Москва;55.911108;37.578847;;;
ул.Генерала Дорохова, д.16, с.7, из центра, г. Москва;55.697007;37.451454;;;
ул.Широкая, д.10, к.1, г. Москва;55.887776;37.652485;;;
Студеный проезд, д.38, к.1, г. Москва;55.892863;37.672536;;;
Сущевский вал, д.46, (ТТК, внутренняя сторона), г. Москва;55.792908;37.612592;;;
Театральный проезд, д.2, г. Москва;55.758668;37.619946;;;
ТТК, ул.Беговая, дублер, д.31, стр.1 по Ленинградскому просп., г. Москва;55.783516;37.562302;;;
Каширское ш., д.53, к.1, дублёр, г. Москва;55.638769;37.690919;;;
ул.Люсиновская, д.72, из центра, г. Москва;55.713935;37.622349;;;
ул.Орджоникидзе, у д.11, с.1, г. Москва;55.709797;37.594013;;;
МКАД 22 км, внутренняя сторона, вл.8 по МКАД 21 км, г. Москва;55.60674;37.761773;;;
ул.Баррикадная, напротив д.4, с.2, г. Москва;55.75978;37.581523;;;
Загорьевский проезд, напротив д.2, г. Москва;55.573861;37.672534;;;
Варшавское ш., напротив д.37, из центра, г. Москва;55.687995;37.622056;;;
ул.Горбунова, д.19, к.1, г. Москва;55.723198;37.384331;;;
Волоколамское ш., д.67, с.3, дублер, в центр, г. Москва;55.821741;37.44388;;;
Севастопольский просп., напротив д.58, г. Москва;55.640102;37.547765;;;
ул.Шаболовка, д.37, с.10, в центр, г. Москва;55.718039;37.608968;;;
ул.Мытная, д. 9А по ул. Коровий Вал, в центр, г. Москва;55.729417;37.614353;;;
ул.Болотниковская, д.21, с.3, г. Москва;55.65705;37.5974;;;
Ленинградский просп., д.15, с.2, г. Москва;55.782274;37.572468;;;
ТТК, внешняя сторона, д.2, соор.1 по 1-му Сетуньскому проезду, г. Москва;55.732439;37.543015;;;
Рязанский просп., д.2Б, из центра, г. Москва;55.731103;37.738561;;;
Рязанский просп., д.4А, с.2, из центра, г. Москва;55.72967;37.746928;;;
ул.Подольских Курсантов, д.9А, с.3, г. Москва;55.605855;37.628866;;;
Энтузиастов ш., д.5 по проезду Завода Серп и Молот, г. Москва;55.749923;37.708189;;;
Энтузиастов бул., д.2, г. Москва;55.746561;37.681326;;;
Щёлковское ш., д. 102А, из центра, г. Москва;55.813603;37.837809;;;
МКАД 35 км, съезд на внутреннее кольцо с ул.Поляны, г. Москва;55.581863;37.570335;;;
ул.Минская, напротив д. 48 по Кутузовскому просп., г. Москва;55.732489;37.489934;;;
Чистопрудный бул., д.10, с.1, г. Москва;55.76221;37.642575;;;
ул.Лобачевского, д.41, г. Москва;55.689643;37.472439;;;
ул.Барклая, д.19/18, к.2 по ул.Большая Филёвская, г. Москва;55.746948;37.495232;;;
ул.Тульская Б., д.13, в центр, г. Москва;55.708899;37.621493;;;
ул.Белореченская, д.45, к.1, г. Москва;55.661879;37.774311;;;
ул.Волхонка, д.10, г. Москва;55.747491;37.607555;;;
Госпитальный вал, д.1А, с.1, г. Москва;55.770413;37.703272;;;
ул.Муравская, д.48, с.2 по Пятницкому ш., г. Москва;55.859438;37.358449;;;
ул.Генерала Белова, д.18Б, г. Москва;55.609437;37.722883;;;
ул.Дорожная, д.20, к.1, г. Москва;55.602952;37.622429;;;
Съезд 5В, с МКАД, на ул. Николая Старостина, г. Москва;55.731139;37.845897;;;
ул.Поляны, 580 метров после МКАД, из центра, г. Москва;55.576804;37.566743;;;
ул.Радиальная 6-Я, д.1, с.6, г. Москва;55.609917;37.667387;;;
Шмитовский проезд, напротив д. 26, в центр, г. Москва;55.755961;37.539574;;;
ТТК, внутренняя сторона, д.9, с.5 по Автомобильному проезду, г. Москва;55.731971;37.703588;;;
Театральный проезд, д.3, г. Москва;55.759239;37.621675;;;
ул.Толбухина, д.3, г. Москва;55.717809;37.401629;;;
ул.Варварка, д.2, г. Москва;55.752413;37.625978;;;
ул.Юных Ленинцев, д.14/16, к.1, г. Москва;55.699714;37.741618;;;
МКАД 28 км, внутренняя сторона, съезд на М-4 Дон в область, г. Москва;55.575565;37.686284;;;
Ярославское ш., д.142, к.3, г. Москва;55.878696;37.721365;;;
Бережковская наб., напротив д.24, с.12, г. Москва;55.730948;37.552174;;;
Северо-Восточная хорда, д.33А, с.3 по ул.Зеленоградская, г. Москва;55.875945;37.493474;;;
ул.Воздвиженка, напротив д.3/5с3, г. Москва;55.752492;37.610463;;;
"Ленинградское ш., ООТ ""Молжаниновка"", в центр, г. Москва";55.93432;37.373242;;;
Варшавское ш., д.129А, г. Москва;55.615668;37.611998;;;
Каширское ш., д.57, к.1, соор.3, г. Москва;55.635785;37.696155;;;
ул.Чертановская, д.2/11, г. Москва;55.632875;37.601967;;;
съезд 2 МКАД, напротив д.2 по МКАД 2 км, г. Москва;55.7675;37.84151;;;
ул.Тульская Б., д.2, из центра, г. Москва;55.709993;37.621465;;;
Варшавское ш., напротив д.46, г. Москва;55.672137;37.626903;;;
"МКАД 62 км, внешняя сторона, ООТ ""Новорижское шоссе"", г. Москва";55.784652;37.369933;;;
ул.Чертановская, д.44, г. Москва;55.60951;37.590742;;;
ул.Снежная, д.19, к.2, г. Москва;55.853788;37.64956;;;
Проектируемый проезд №1423, пересечение с ул.Южнопортовая, из центра, г. Москва;55.700012;37.705659;;;
"въезд в ТПУ ""Станция МЦК ЗИЛ"", д.23И/11по ул.Автозаводская, г. Москва";55.697738;37.650255;;;
Симферопольское ш., 390 метров после МКАД, из центра, г. Москва;55.572458;37.597573;;;
ул.Шипиловская, д.37, к.1, г. Москва;55.621775;37.731197;;;
Каширское ш., 270 метров после МКАД, из центра, г. Москва;55.58951;37.731717;;;
Зеленый просп., д.27, к.1, в центр, г. Москва;55.751652;37.788043;;;
ул.Юности, напротив д.3, г. Москва;55.735538;37.813998;;;
Госпитальная наб., д.4, с.1А, к Электрозаводскому мосту, г. Москва;55.773806;37.697687;;;
ул.Сельскохозяйственная, д.30, с.1, г. Москва;55.838142;37.63581;;;
Каширское ш., д.1, с.1, в центр (выезд из тоннеля), г. Москва;55.67452;37.626695;;;
Ленинградское ш., напротив, д.24, к.1, в центр, г. Москва;55.827364;37.490658;;;
Лубянская пл., напротив д.5 по Театральному проезду, из центра, г. Москва;55.759918;37.626283;;;
Липецкая ул. -МКАД (после съезда с Липецкой ул. на МКАД),в центр, г. Москва;55.576774;37.687333;;;
ул.Ставропольская, д.15, г. Москва;55.681009;37.750264;;;
Лубянская пл., д.2 по ул. Большая Лубянка, из центра, г. Москва;55.760146;37.626914;;;
ТТК, внутренняя сторона, Новая Башиловка ул., д.10, г. Москва;55.78852;37.570201;;;
Мира просп., д.102, к.2, из центра, г. Москва;55.801264;37.636305;;;
"МКАД 106 км, внутренняя сторона, 250 метров до ООТ ""Микрорайон 1 Мая"", г. Москва";55.805517;37.839263;;;
ул.Башиловка Н., д.14, г. Москва;55.789366;37.571147;;;
Рязанский просп., Карачаровская эстакада, д.8, с.1, г. Москва;55.727167;37.756767;;;
Рублевское ш., напротив д.60, к.19, г. Москва;55.763056;37.383939;;;
Садовое кольцо, внешняя сторона, ул.Земляной Вал, д.53, с.1, г. Москва;55.752463;37.656354;;;
ул.Краснодарская, д.13, с.2, г. Москва;55.677236;37.744721;;;
Братеевский мост, д.179/1 по ул.Люблинская, г. Москва;55.643806;37.746515;;;
МКАД 45 км, внутренняя сторона, съезд с Ленинского проспекта, из центра, г. Москва;55.641134;37.457525;;;
ул.Радио, д.13, г. Москва;55.76376;37.674613;;;
"МКАД 12 км, внешняя сторона, 780 метров до ООТ ""11-й километр"", г. Москва";55.677417;37.83434;;;
Симферопольский бул., д.24, к.2, г. Москва;55.64596;37.605296;;;
ул.Юности, к.301А, г. Зеленоград, г. Москва;56.000968;37.210575;;;
Можайское ш., дублер, д.4 по ул.Беловежская, в центр, г. Москва;55.713394;37.387204;;;
ул.Удальцова, д.85А, г. Москва;55.681869;37.491718;;;
ул.Заповедная, напротив д.16, к.1, г. Москва;55.86674;37.639727;;;
ул.Озерная, д.39, г. Москва;55.667024;37.442975;;;
ул.Шипиловская, д.32, г. Москва;55.620173;37.718727;;;
ул.Широкая, д.18Б по ул.Стартовая, г. Москва;55.885672;37.686294;;;
Алтуфьевское ш., д.147, с.1, г. Москва;55.907889;37.587081;;;
ул.Черемушкинская Б., д.19, к.2 по ул.Шверника, г. Москва;55.689267;37.596831;;;
1-й Крестовский пер., д.92, стр.1 по проспекту Мира, г. Москва;55.792289;37.636585;;;
Дмитровское ш., напротив д.165Б, из центра, г. Москва;55.916871;37.544376;;;
Вышеславцев 1-Й пер., д.8, в центр, г. Москва;55.791288;37.605726;;;
Волгоградский просп., д.32, к.11, с.1, г. Москва;55.723549;37.692537;;;
ул.Краснодарская, д.57, к.2, г. Москва;55.676072;37.768389;;;
ул. Филевская М., д.18, г. Москва;55.736735;37.467603;;;
ул.Маршала Бирюзова, д.30, г. Москва;55.797715;37.485569;;;
МКАД 58 км, внешняя сторона, 500 метров до съезда 57, г. Москва;55.74203;37.371123;;;
ул.Мосфильмовская, напротив д.22, г. Москва;55.720941;37.525274;;;
ул.Мосфильмовская, напротив д.1, стр.18, г. Москва;55.721674;37.526047;;;
Мякининский проезд, пересечение с Неманским проездом, в центр, г. Москва;55.808643;37.390007;;;
ул.Русаковская, д.1, г. Москва;55.781773;37.67042;;;
МКАД 84 км, внутренняя сторона, д.8, с.1, г. Москва;55.91084;37.580309;;;
ул.Островитянова, д.21, г. Москва;55.636882;37.512065;;;
ул.Краснодарская, д.48, г. Москва;55.676763;37.762033;;;
Сколковское ш., д.45, г. Москва;55.698883;37.394131;;;
Рублевское ш., д.4, съезд на дублер, г. Москва;55.731326;37.445954;;;
ул.Хабаровская, вл.25 по ул.Курганская, г. Москва;55.829604;37.825249;;;
Рублевское ш., 50м от ст. м.Кунцевская, к ул.Ивана Франко, г. Москва;55.730102;37.446055;;;
ул.Ремизова, д.14А, г. Москва;55.673884;37.60535;;;
Ярославское ш., д.55, дублер, г. Москва;55.861793;37.69298;;;
ул.Ярцевская, д.30, г. Москва;55.740223;37.415303;;;
ул.Осенняя, д.4, к.1, г. Москва;55.758669;37.399873;;;
Пролетарский просп., д.12/25, г. Москва;55.644758;37.655972;;;
ул.Островитянова, д.13, г. Москва;55.640728;37.50231;;;
ул.Профсоюзная, дублер, д.2, с.1 по Новоясеневскому проспекту, г. Москва;55.618276;37.504421;;;
МКАД 69 км, внутренняя сторона, напоротив д.15 по ул.Василия Петушкова, г. Москва;55.837975;37.396098;;;
ул.Гарибальди, напротив д.15, к.2, г. Москва;55.674134;37.542992;;;
Остафьевское ш., пересечение с ул.Степана Эрьзи, в центр, г. Москва;55.507956;37.551543;;;
МКАД 14 км, внешняя сторона, съезд на ул.Верхние Поля, в центр, г. Москва;55.6574;37.839663;;;
Волоколамское ш., д.1, с.1, дублёр, в центр, г. Москва;55.806979;37.504328;;;
ул.Молодогвардейская, д.64, с.4, г. Москва;55.732757;37.383223;;;
ул.Правды, д.11, г. Москва;55.785914;37.57906;;;
ТТК, внешняя сторона, д.15 по 1-му Угрешскому проезду, г. Москва;55.717971;37.693667;;;
Дмитровское ш., д.149, г. Москва;55.893873;37.542844;;;
Мира просп., д.92, с.1, г. Москва;55.793293;37.634869;;;
ул.Флотская, д.44, г. Москва;55.853449;37.499616;;;
МКАД 103 км, внешняя сторона, напротив д.12 по ул.Курганская, г. Москва;55.830982;37.826451;;;
ул. 800-летия Москвы, д.2 по ул.Софьи Ковалевской, г. Москва;55.87634;37.534617;;;
ул.Бориса Галушкина, д.26, г. Москва;55.820677;37.665422;;;
"Прибрежный проезд, напротив д.7 по ул.Дыбенко, выезд из МАВ ""Северные ворота"", г. Москва";55.880125;37.479343;;;
Щелковское ш., д. 2 по ул. Красноярская, в центр, г. Москва;55.813747;37.83708;;;
Новотушинский проезд, 190 метров после ул. Новотушинская, (дублёр), в центр, г. Москва;55.833506;37.386977;;;
Лубянская пл., напротив д. 1/3с1 по Малому Черкасскому переулку, г. Москва;55.759152;37.626712;;;
Энтузиастов ш., д.13, с.2, г. Москва;55.751117;37.714258;;;
ул.Академическая Б., д.75, к.1, г. Москва;55.842378;37.554;;;
"Проектируемый пр-д №7029, дублер, 240 метров до ООТ ""Метро Филатов Луг"", движение от Киевского ш., Московский п-е, г. Москва";55.602587;37.404175;;;
ул.Ельнинская, д. 25, к.3 по Ярцевской ул., к Ярцевской ул., г. Москва;55.741903;37.415138;;;
"МКАД 74 км, внутренняя сторона, ООТ ""Новобутаково"", г. Москва";55.878233;37.433938;;;
ул.Верхние Поля, напротив д.6, г. Москва;55.662638;37.742523;;;
ул.Ремизова, д.31А, с.2 по ул.Криворожская, г. Москва;55.672103;37.607867;;;
"МКАД 37 км, внешняя сторона, 140 метров до ООТ ""Зона отдыха Битца"", г. Москва";55.587926;37.54326;;;
"Строгинское ш., 170 метров, после ООТ ""Воднолыжный стадион"", в центр, г. Москва";55.804396;37.433123;;;
ул.Автозаводская, д.7, г. Москва;55.708223;37.660445;;;
Андропова просп., д.22, г. Москва;55.682257;37.664394;;;
"Андропова просп., 160 метров до ООТ ""Парк Садовники"", из центра, г. Москва";55.664197;37.657468;;;
ул.Базовская, напротив д.8А, г. Москва;55.876357;37.509175;;;
МКАД, 47км, вл.1, внешняя сторона, г. Москва;55.653034;37.442327;;;
ул.Рябиновая, напротив д.8, с.4 по ул.М.Очаковская, г. Москва;55.668732;37.428814;;;
Комсомольская площадь, д.2, г. Москва;55.77443;37.6545;;;
ул.Лобачевского, д.76, к.3 по проспекту Вернадского, г. Москва;55.673355;37.487545;;;
Алтуфьевское ш., д.56, из центра, г. Москва;55.881562;37.586659;;;
Красногвардейский 2-Й проезд, напротив д.8, с.1, г. Москва;55.752672;37.533368;;;
Волгоградский просп., д.35, дублёр, г. Москва;55.723112;37.694501;;;
МКАД, 54км, внешняя сторона, д.166 по Можайскому ш., г. Москва;55.709351;37.388573;;;
"МКАД 13 км, внутренняя сторона, 770 метров до ООТ ""Белая Дача"", г. Москва";55.665881;37.838113;;;
Лермонтовский просп., дублер, д.19, к.1, в центр, г. Москва;55.700419;37.854199;;;
Дмитрия Донского бул., д.9, стр.2, г. Москва;55.570893;37.577703;;;
Рублевское ш., напротив д.74, в центр, г. Москва;55.769371;37.370533;;;
"МКАД 93 км, внешняя сторона, ООТ ""Поворот на Мытищи"", г. Москва";55.890369;37.710213;;;
ТТК, внешняя сторона, д.50 по ул.Нижегородская, г. Москва;55.734712;37.701107;;;
Проектируемый проезд № 5019, съезд 64В МКАД, в центр, г. Москва;55.809033;37.386077;;;
Лубянская пл., у дома 5 стр. 1 по Театральному проезду, г. Москва;55.759903;37.626122;;;
МКАД, 75км, внутренняя сторона, 1Б по Правобережной ул., г. Москва;55.882181;37.451077;;;
Съезд с СВХ на МКАД, 76км, внешн. кольцо, из центра, г. Москва;55.88584;37.476183;;;
Олсуфьевский пер., д.11, с.1 по ул.Большая Пироговская, г. Москва;55.734452;37.578382;;;
Новокуркинское ш., 240 метров до МКАД, в центр, г. Москва;55.872717;37.409336;;;
МКАД 57 км, внешняя сторона, 220 метров после съезда 56 МКАД, г. Москва;55.732602;37.375716;;;
МКАД, 82 км, внешняя сторона, напротив д.163А по Дмитровскому ш., г. Москва;55.907664;37.539999;;;
"МКАД 84 км, внешнее кольцо, 700 метров после ООТ ""Алтуфьевское шоссе"", г. Москва";55.910697;37.568897;;;
"МКАД 84 км, внешнее кольцо, 240 метров после ООТ ""Алтуфьевское шоссе"", г. Москва";55.911209;37.576118;;;
Подушкинский путепровод, вл.24 по ул.Корнейчука, г. Москва;55.902216;37.614704;;;
Щелковское ш., перед съездом на внешнюю сторону МКАД, из центра, г. Москва;55.813958;37.839789;;;
Лубянский проезд, д.25, с.1, г. Москва;55.755046;37.633975;;;
Мира просп., д.92, с.1, г. Москва;55.793226;37.634679;;;
ул.Подольских Курсантов, напротив д.22Б, с.1, г. Москва;55.597511;37.636523;;;
"МКАД 103 км, внутренняя сторона, 340 метров после ООТ ""Абрамцево"", г. Москва";55.827475;37.831554;;;
ул.Стромынка, д.1 по ул.Барболина, г. Москва;55.790021;37.683131;;;
60-Летия Октября просп., д.8, г. Москва;55.695461;37.576821;;;
дублер МКАД 69 км, внутренняя сторона, д.17 по ул.Василия Петушкова, г. Москва;55.839128;37.39635;;;
ул.Чертановская, д.23, г. Москва;55.619242;37.59395;;;
Ленинградское ш., д.8, к.2, г. Москва;55.8167;37.499978;;;
"МКАД 34 км, внутренняя сторона, ООТ ""Симферопольское шоссе"", г. Москва";55.576755;37.591881;;;
ул.Полянка Б., д.4/10, г. Москва;55.741085;37.616213;;;
ул.Большая Серпуховская, д.31, к.11, г. Москва;55.72286;37.627267;;;
Ярославское ш., дублер, д.143, г. Москва;55.879987;37.721736;;;
Нижегородский пер., д.12 по ул.Большая Калитниковская, г. Москва;55.737019;37.679543;;;
Щелковское ш., 130 метров до МКАД, в центр, г. Москва;55.814444;37.841133;;;
Новодачное ш., напротив д.16 по ул.Мичурина, г. Москва;55.936762;37.522665;;;
МКАД 105 км, внешняя сторона, съезд 105В, г. Москва;55.810261;37.839772;;;
ул.Масловка Н., д.9, г. Москва;55.791431;37.576582;;;
ул.Кетчерская, д.9, с.7, г. Москва;55.743962;37.832694;;;
Новоухтомское ш., д.15Б, с.12 по ул.Заозерная, в центр, г. Москва;55.71875;37.840851;;;
ул.Милашенкова, напротив д.22, г. Москва;55.829155;37.578062;;;
ТТК, внутренняя сторона, д.3А по ул.1-я Рыбинская, г. Москва;55.79086;37.656296;;;
Университетский просп., д.1, с.31А по мкр.Ленинские Горы, г. Москва;55.709424;37.529959;;;
ул.Большая Тульская, д.2, г. Москва;55.710681;37.621623;;;
МКАД, 9км, внутр. сторона, МГО №022, съезд с Рязанского просп., г. Москва;55.705162;37.833249;;;
МКАД, 10км, внешн. сторона, МГО №024, съезд с Новорязанского ш., г. Москва;55.690457;37.83004;;;
Андропова просп., д.17, к.1, г. Москва;55.682006;37.664776;;;
"МКАД, 15км, внешн. сторона, напротив ООТ ""Садовод"", г. Москва";55.65307;37.837382;;;
МКАД 65 км, внешняя сторона, напротив д.18 по Неманскому проезду, г. Москва;55.805998;37.386857;;;
Волоколамское ш., д.63А, с.1, г. Москва;55.818819;37.45441;;;
Щелковское ш., д.95, к.1, г. Москва;55.813415;37.832372;;;
ул.Краснобогатырская, напротив д.72, с.3, г. Москва;55.804093;37.707661;;;
ул.Даниловский Вал, д.1, г. Москва;55.71152;37.623401;;;
Бережковская наб., д.12, г. Москва;55.738047;37.565279;;;
ТТК, внешнее кольцо, П-образная опора, съезд на Кутузовский пр-т, в область, г. Москва;55.743446;37.53351;;;
Китайгородский проезд, д.9, с.2, г. Москва;55.750602;37.632753;;;
Лианозовский проезд, д.8А, г. Москва;55.899964;37.547988;;;
Волоколамское ш., 1 км до МКАД, в центр, г. Москва;55.830732;37.378861;;;
Золоторожский вал, д.4А, г. Москва;55.75436;37.690222;;;
съезд с МКАД, внешнее кольцо, на Калужское ш., в область, г. Москва;55.617453;37.483885;;;
ул.Авиамоторная, д.63, с.1, г. Москва;55.739516;37.721026;;;
ул.Солянка, д.16, г. Москва;55.750654;37.642196;;;
Каширское ш., в центр, МГО №204, съезд на внутреннее кольцо МКАД, г. Москва;55.592768;37.728767;;;
МКАД 72 км, внешняя сторона, дублер, 490 метров после Новокуркинского ш., г. Москва;55.868049;37.40602;;;
Путилковское ш., д.25 по 1-му Митинскому переулку, г. Москва;55.851593;37.389436;;;
Вернадского просп., д.90, с.1, из центра, г. Москва;55.655793;37.480159;;;
Лермонтовский просп., дублер, д.19, в центр, г. Москва;55.700696;37.853485;;;
Мичуринский просп., напротив д.6 по ул. Дружбы, из центра, г. Москва;55.708806;37.519756;;;
Мира просп., д.97, дублер, г. Москва;55.810104;37.636971;;;
ул.Лубянка Б., д.20, с.2, г. Москва;55.764525;37.629957;;;
Можайское ш., д.4  по ул.Беловежская, в центр, г. Москва;55.713639;37.387295;;;
ул.Капотня, д.1, с.3 по 2-му Капотнинскому проезду, г. Москва;55.641054;37.815312;;;
"проезд от дублера Проектируемого пр-да №7029 к ул.Полевая СНТ ""Филатов Луг"", напротив д.97, с.1 СНТ ""Филатов Луг"", Московский п-е, г. Москва";55.60103;37.405053;;;
ул.Енисейская, д.35, г. Москва;55.875389;37.667119;;;
ул.Воловья, д.32 по ул.Большая Калитниковская, г. Москва;55.73656;37.683621;;;
"Варшавское ш., 100 метров до ООТ ""Бунчиха"", из центра, д. Бунчиха, Роговское п-е, г. Москва";55.237157;37.038126;;;
ул.Привольная, д.5, к.1, г. Москва;55.70251;37.84076;;;
Калужское ш., дублер, д.15, д. Ватутинки, Десеновское п-е, г. Москва;55.492795;37.327482;;;
ул.Магистральная 3-Я, напротив д.10, с.1, г. Москва;55.763129;37.521304;;;
Калужское ш., 23км (П Сосенское), поворот на пос. Газопровод, из центра, Сосенское п-е, г. Москва;55.584261;37.470674;;;
Кирпичный 1-Й пер., д.32, к.25 по ул.Кирпичная, г. Москва;55.777676;37.733352;;;
ул.Комдива Орлова, д.31, с.40 по ул.Ботаническая, г. Москва;55.838787;37.58036;;;
Симферопольское ш., 500 метров перед МКАД, в центр, г. Москва;55.571375;37.598524;;;
Рязанский просп., д.46, к.3, из центра, г. Москва;55.717531;37.791192;;;
Лермонтовский просп., дублер, из центра, съезд на внешнюю сторону МКАД, г. Москва;55.70743;37.836673;;;
Энтузиастов ш., д.34, г. Москва;55.754762;37.734353;;;
Рязанский просп., д.99, с.4, в центр, г. Москва;55.713024;37.8136;;;
МКАД 13 км, внешняя сторона, д.1 по МКАД 14 км, г. Москва;55.669753;37.837386;;;
Буденного просп., д.27, к.3 по ул.Буракова, г. Москва;55.759199;37.737653;;;
Энтузиастов ш., д.14, из центра, г. Москва;55.749988;37.709629;;;
Волгоградский проспект, д.26, стр.1 по ул.Угрешская, из центра, г. Москва;55.719312;37.702683;;;
ул.Свободы, д.38, г. Москва;55.844151;37.454892;;;
ул.Фестивальная, д.27, г. Москва;55.856311;37.479637;;;
ул.Илимская, д.81 по Алтуфьевскому ш., г. Москва;55.889639;37.585786;;;
Ленинградский просп., д.18, г. Москва;55.780864;37.57622;;;
Севастопольский просп., д.9, к.1, г. Москва;55.69119;37.606808;;;
ул.Бубнова, д.12, к.1 по ул. Планерной, г. Москва;55.861868;37.436353;;;
Волоколамское ш., вл.10 по ул.Академика Курчатова, в центр, г. Москва;55.812901;37.47492;;;
Волоколамское ш., д. 2 по ул. Щукинская, в центр, г. Москва;55.811017;37.484584;;;
Волоколамское ш., д.15/22, в центр, г. Москва;55.809435;37.492192;;;
Ленинградский просп., д.37А, соор.2, дублер, г. Москва;55.791882;37.550571;;;
ул.Лесная, д.20, с.1, г. Москва;55.779877;37.5909;;;
Ленинградский просп., д.36, с.28, дублёр, г. Москва;55.788971;37.559229;;;
Ленинградский просп., д.68, дублёр, из центра, г. Москва;55.803366;37.52227;;;
Ленинградский просп., д.74, дублер, из центра, г. Москва;55.805164;37.515537;;;
Ленинградский просп., д.80, к.16, дублер, г. Москва;55.806976;37.50891;;;
Ленинградское ш., д. 80, к.4 по Ленинградскому просп., из центра, г. Москва;55.80935;37.505943;;;
Ленинградское ш., дублер, д.6, к.5, из центра, г. Москва;55.812068;37.50373;;;
МКАД 95 км, внутренняя сторона, д.146, к.1 по Ярославскому ш., г. Москва;55.87853;37.73341;;;
Тверская Застава пл., д. 5 по ул. Бутырский Вал, г. Москва;55.777702;37.583191;;;
Ленинградское ш., д.20/1, из центра, г. Москва;55.826094;37.492344;;;
Ленинградское ш., д.54, из центра, г. Москва;55.837167;37.483261;;;
Ленинградское ш., д.58, с.7, из центра, г. Москва;55.841583;37.480004;;;
Ленинградское ш., д.2А по ул.Фестивальная, из центра, г. Москва;55.853305;37.471829;;;
ул.Лесная, д.20, с.5, г. Москва;55.779451;37.590172;;;
Ленинградское ш., напротив д. 30, в центр, г. Москва;55.829085;37.48939;;;
Ленинградское ш., д.5А, в центр, г. Москва;55.813586;37.502133;;;
Ленинградское ш., д.1, въезд в тоннель, в центр, г. Москва;55.808021;37.506713;;;
Каширское ш., д.122, г. Москва;55.605805;37.719685;;;
ул.Народного Ополчения, д.21, к.1, из центра, г. Москва;55.778041;37.478426;;;
Северо-Западная хорда, ул.Народного Ополчения, д.20, к.1, г. Москва;55.777792;37.478764;;;
Северо-Западная хорда, ул.Народного Ополчения, д.11, г. Москва;55.772357;37.475564;;;
ул.Ярцевская, д.36, к.1, в центр, г. Москва;55.742881;37.419581;;;
Северо-Западная хорда, ул.Нижние Мневники, д.2А, с.1, г. Москва;55.749025;37.437325;;;
Мира просп., д.184, к.1, г. Москва;55.828825;37.649659;;;
ул.Алабяна, д.19, к.1, г. Москва;55.799104;37.503268;;;
Северо-Западная хорда, напротив д.53 по Б.Академической ул., г. Москва;55.837512;37.54143;;;
ул.Сергия Радонежского, д.12, к.1, г. Москва;55.74659;37.678411;;;
Дмитровское ш., д.62, с.4, из центра, г. Москва;55.853243;37.564103;;;
Садовое кольцо, внутренняя сторона, д.10, с.1 по ул.Садовая-Самотёчная, г. Москва;55.773415;37.615341;;;
Дмитровское ш., д.56, из центра, г. Москва;55.84859;37.567483;;;
ул.Новый Арбат, д.28, г. Москва;55.752735;37.58447;;;
Дмитровское ш., д.51, к.1, в центр, г. Москва;55.842681;37.569452;;;
Дмитровское ш., д.7, с.2 по ул. Селигерская, из центра, г. Москва;55.866891;37.54746;;;
Дмитровское ш., вл.163А, в центр, г. Москва;55.911087;37.544226;;;
Дмитровское ш., съезд со внешней стороны МКАД, в центр, г. Москва;55.908168;37.543452;;;
Яузский бул., д.13, г. Москва;55.750846;37.645259;;;
Устьинский проезд, д.2/14, г. Москва;55.749582;37.641325;;;
ул.Крымский Вал, д.9, с.12, г. Москва;55.731329;37.606802;;;
ул.Липецкая, д.2, к.8, г. Москва;55.607783;37.666118;;;
ул.Липецкая, д.3, к.1, в центр, г. Москва;55.607719;37.666545;;;
Маршала Жукова просп., напротив д.92, в центр, г. Москва;55.788739;37.377335;;;
Энтузиастов ш., дублер, напротив д.4А, с.1, г. Москва;55.748161;37.698403;;;
Дмитровское ш., д.47, стр.3, в центр, г. Москва;55.835815;37.572012;;;
МКАД 8 км, внутреннее кольцо, съезд 6В, на СВХ, г. Москва;55.713341;37.837484;;;
ул.Подольских Курсантов, д.4, к.1, г. Москва;55.60943;37.612625;;;
ул.Валовая, д.26, дублер, г. Москва;55.730414;37.629016;;;
Рязанский просп., д.2 по 2-му Карачаровскому проезду, г. Москва;55.728425;37.753566;;;
ул.Новый Арбат, д.36, г. Москва;55.752729;37.578063;;;
Дмитровское ш., д.2, из центра, г. Москва;55.808791;37.580422;;;
Мичуринский просп., д.1, г. Москва;55.707707;37.518045;;;
Вернадского просп., д.70А, из центра, г. Москва;55.671659;37.496809;;;
ул.Вернисажная, поворот на ул.Щербаковская, напротив д.57/20 по Окружному проезду, г. Москва;55.783716;37.746146;;;
Кутузовский просп., д.2, к.2 по площади Победы, г. Москва;55.736729;37.517945;;;
ул.Щербаковская, д.36, с.3, г. Москва;55.782611;37.731499;;;
Щелковское ш., дублер, вл.2 по ул. Хабаровская, в центр, г. Москва;55.813335;37.829947;;;
ул.Каланчевская, д.6, с.2, г. Москва;55.771319;37.651862;;;
МКАД 61 км, внутренняя сторона, д.74 по Рублёвскому ш., г. Москва;55.77167;37.369748;;;
ул.Дубравная, д.53, г. Москва;55.840102;37.349823;;;
Алтуфьевское ш., д.9, в центр, г. Москва;55.852613;37.584561;;;
ТТК, внешняя сторона, ул. Сущёвский Вал, д.67, П-опора, г. Москва;55.792974;37.622232;;;
Сущевский вал, д.56, с.1, ТТК, внутренняя сторона, П-опора, г. Москва;55.792677;37.622176;;;
ТТК, ул.Сущёвский Вал, д.6 по ул.Верземнека, г. Москва;55.792118;37.629625;;;
Мира просп., д.114, из центра, г. Москва;55.808425;37.6376;;;
Мира просп., напротив д.211, к.2, из центра, г. Москва;55.844006;37.667997;;;
Ярославское ш., д.142, дублер, г. Москва;55.876459;37.718682;;;
ТТК, внешняя сторона, д.45 по ул.Малая Тульская, г. Москва;55.703391;37.616796;;;
Севастопольский просп., д.4, г. Москва;55.691352;37.606475;;;
Мира просп., д.5 по ул.Рижская площадь, г. Москва;55.795216;37.634386;;;
ТТК, внешняя сторона, ул.Сущёвский Вал, д.33, стр.1, г. Москва;55.792987;37.607119;;;
Проектируемый проезд № 584, д.1, к.7 по ул. Грина, г. Москва;55.558931;37.585606;;;
Варшавское ш., в центр, съезд на ул.Грина, г. Москва;55.558631;37.589508;;;
Энтузиастов ш., из центра, съезд на МКАД, внутреннее кольцо, г. Москва;55.775727;37.838565;;;
Комсомольская площадь, д.2, г. Москва;55.774893;37.656146;;;
"МКАД 2 км, внешняя сторона, 700 метров до ООТ ""Ивановское"", г. Москва";55.762122;37.843084;;;
ул.Масловка Н., напротив д.19, г. Москва;55.791349;37.571566;;;
Вернадского просп., д.13, дублер, в центр, г. Москва;55.688117;37.527451;;;
Сретенский бул., д.1, к.4, г. Москва;55.766913;37.632064;;;
Каширское ш., д.19, к.1, г. Москва;55.664593;37.630404;;;
Энтузиастов ш., д.7, г. Москва;55.748252;37.699766;;;
Семеновский проезд, д.2Г, с.1 по ул.Золотая, г. Москва;55.77545;37.714166;;;
ул.Восточная, д.11, г. Москва;55.713381;37.659078;;;
Садовое кольцо, внутренняя сторона, Новинский бул., д. 28/35, г. Москва;55.757731;37.584626;;;
Энтузиастов ш., напротив д.82/2, к.1, в центр, г. Москва;55.765767;37.789224;;;
Маршала Жукова просп., вл.17, стр.3 по ул. Маршала Прошлякова, из центра, г. Москва;55.78765;37.384608;;;
Звенигородское ш., д.9 по ул.Мнёвники, в центр, г. Москва;55.772667;37.490228;;;
Садовое кольцо, внешняя сторона, Новинский бул., д. 21, г. Москва;55.756023;37.583751;;;
Новинский бул., д.15, г. Москва;55.754644;37.583517;;;
Садовое кольцо, внешняя сторона, Новинский бул., д. 2/1 по Проточному переулку, г. Москва;55.750398;37.58278;;;
Садовое кольцо, внутренняя сторона, Новинский бул., д.8, с.2, г. Москва;55.750367;37.58315;;;
Андропова просп., напротив д.39, с.69, г. Москва;55.657309;37.65384;;;
Краснопресненская наб., д.12, г. Москва;55.753167;37.556163;;;
Крымский вал, д.9, с.12, г. Москва;55.730825;37.608397;;;
Крымский вал, д.8, г. Москва;55.731023;37.60863;;;
"МКАД 49 км, внешняя сторона, ООТ ""Посёлок Мещерский"", г. Москва";55.674631;37.422725;;;
ул.Валовая, д.29, г. Москва;55.730088;37.628937;;;
Садовое кольцо, внешняя сторона, д.4 по ул. Народная, г. Москва;55.739286;37.650998;;;
Садовое кольцо, внутренняя сторона, д.7 по 1-ому Гончарному переулку, г. Москва;55.739525;37.650819;;;
ул.Земляной Вал, напротив д.72, г. Москва;55.743792;37.65517;;;
Земляной вал, д.61, с.2, Ульяновская эстакада, г. Москва;55.748288;37.655844;;;
ул.Земляной Вал, д.72, г. Москва;55.743807;37.654827;;;
Садовое кольцо, внешняя сторона, Высокояузский мост, напротив д.3А, к.2 по Николоямскому переулку, г. Москва;55.750033;37.656055;;;
Садовое кольцо, внешняя сторона, ул. Земляной Вал, д.39/1, с.1, г. Москва;55.755053;37.657405;;;
Энтузиастов ш., д.46/2, дублер, г. Москва;55.758777;37.755621;;;
Крюковская пл., напротив к.834Б, г. Зеленоград, г. Москва;55.980648;37.175224;;;
Мира просп., д.125, с.1, г. Москва;55.828925;37.649357;;;
Садовое кольцо, внутренняя сторона, ул. Садовая-Кудринская, д.26/40, стр.2, г. Москва;55.763528;37.588194;;;
Садовое кольцо, внутренняя сторона, ул.Садовая-Триумфальная, д.4/10, г. Москва;55.77083;37.599534;;;
Земляной вал, д.54, с.1, Ульяновская эстакада, г. Москва;55.748293;37.655458;;;
ул.Валовая, д.26, г. Москва;55.73029;37.628852;;;
Садовое кольцо, внутренняя сторона, ул. Житная, у д.6, г. Москва;55.729792;37.620232;;;
Васильевский Спуск пл., пересечение с Большим Москворецким мостом, г. Москва;55.751769;37.624315;;;
Варшавское ш., д. 56 по ул. Большая Тульская, из центра, г. Москва;55.702053;37.621275;;;
Варшавское ш., д.74, к.1, из центра, г. Москва;55.655907;37.619349;;;
ТТК, внешняя сторона, д.23, к.3 по ул.Автозаводская, г. Москва;55.703372;37.64731;;;
Ленинградский просп., дублёр, д.29, к.2, г. Москва;55.786615;37.562;;;
Кожуховский 1-Й проезд, д.19, к.1, г. Москва;55.708518;37.665826;;;
Варшавское ш., д.150, к.2, г. Москва;55.598098;37.603005;;;
Симферопольское ш., съезд с МКАД, внешнее кольцо, в центр, г. Москва;55.573209;37.597826;;;
ул.Подольских Курсантов, дублер, д.9Б, с.1, г. Москва;55.607059;37.625477;;;
Волоколамское ш., напротив д.88, в центр, г. Москва;55.822723;37.440094;;;
Варшавское ш., напротив д.152, к.1, в центр, г. Москва;55.592642;37.600905;;;
Варшавское ш., д.133, г. Москва;55.60326;37.605909;;;
"МКАД 21 км, внутренняя сторона, 50 метров до ООТ ""Зябликово"", г. Москва";55.608735;37.765567;;;
Хорошевское ш., д.27, г. Москва;55.777897;37.524452;;;
Волоколамское ш., д.104, г. Москва;55.826044;37.427685;;;
Варшавское ш., д.59, с.2, в центр, г. Москва;55.675095;37.626589;;;
Каширское ш., д.44А по Варшавскому ш, из центра, г. Москва;55.674462;37.626248;;;
Волоколамское ш., д.75, г. Москва;55.825941;37.4275;;;
Каширское ш., д.1, к.3 по Борисовскому проезду, г. Москва;55.625925;37.710227;;;
Варшавское ш., д.4А по Днепропетровскому проезду, г. Москва;55.619294;37.613766;;;
МКАД 49 км, внешняя сторона, д.59 по ул.Московская, г. Москва;55.673505;37.423309;;;
проезд от Киевского ш. до д.Лапшинка, напротив д.1Б, с.1, квартал №61, Московский п-е, г. Москва;55.605452;37.335195;;;
ул.Шаболовка, д.29, к.2, в центр, г. Москва;55.721811;37.610407;;;
Садовое кольцо, внеш. сторона, Малый Краснохолмский мост, д.2/1, с.1 по Шлюзовой наб., г. Москва;55.733255;37.6419;;;
Нижняя Краснохолмская ул., д.52, стр.13 по Космодамианской набережной, г. Москва;55.734494;37.644197;;;
Новорязанское ш., в центр, съезд на МКАД, внешнее кольцо, г. Москва;55.68538;37.835485;;;
Волгоградский просп., д.47Б, с.2,  в центр, съезд на ТТК, г. Москва;55.719225;37.703828;;;
ТТК, внешняя сторона, съезд на Шмитовский проезд, напротив д.10 по ул. Тестовская, г. Москва;55.752582;37.531467;;;
ТТК, внешняя сторона, Лужнецкая эстакада, д.2/4, стр.3 по Лужнецкой набережной, г. Москва;55.715297;37.575128;;;
Рязанский просп., у вл.88, из центра, г. Москва;55.708226;37.833105;;;
Андропова просп., напротив д.20, с.1, г. Москва;55.690514;37.666079;;;
ул.Симоновский вал, д.11/31, г. Москва;55.724756;37.663852;;;
Волоколамское ш., д.139, с.2, в центр, г. Москва;55.83252;37.388781;;;
ул.Свободы, д.71, к.3, г. Москва;55.859944;37.449262;;;
ул.Алексея Дикого, д.7, к.1, г. Москва;55.747697;37.812365;;;
ул.Планетная, д.12, г. Москва;55.800176;37.54989;;;
Пятницкое ш., напротив д.23, из центра, г. Москва;55.849718;37.36888;;;
Кронштадтский бул., д.18А, г. Москва;55.843422;37.501731;;;
Каширское ш., д.136, г. Москва;55.600054;37.722992;;;
ул.Дорожная, д.125, с.2А по Варшавскому ш., г. Москва;55.632051;37.621287;;;
ул.Клязьминская, д.19, г. Москва;55.891451;37.529475;;;
МКАД 33 км, внутренняя сторона, д.29А, с.3 по ул.Дорожная, г. Москва;55.575609;37.607988;;;
Пролетарский просп., д.32, из центра, г. Москва;55.630236;37.661236;;;
"ул.Крылатские Холмы, вл.40 ОРП ""Крылатские холмы"", г. Москва";55.764283;37.40761;;;
ул.Профсоюзная, д.116, к.1, г. Москва;55.638372;37.523105;;;
Севастопольский просп., д.26, с.1, г. Москва;55.666364;37.581453;;;
Востряковский проезд, д.20А, г. Москва;55.574868;37.65341;;;
ул.Новобутовская, напротив д.1, к.8 по ул.Грина, г. Москва;55.560302;37.588001;;;
Фрунзенская наб., напротив д.48, г. Москва;55.716998;37.580439;;;
Новотушинский проезд, д.3, г. Москва;55.835818;37.384136;;;
Пресненский вал, д.6, с.2, г. Москва;55.764303;37.563764;;;
ул.Верхние Поля, д.56, с.1, г. Москва;55.656976;37.825754;;;
ул.Молдагуловой, напротив д.34, г. Москва;55.719021;37.834754;;;
ул.Адмирала Лазарева, д.36, г. Москва;55.54616;37.527905;;;
ул.Косыгина, д.32, с.2, г. Москва;55.72054;37.535525;;;
Огородный проезд, напротив д.20, стр.1, г. Москва;55.820211;37.591935;;;
ул.Добролюбова, напротив д.23, г. Москва;55.818976;37.592479;;;
ул.Островитянова, д.31, г. Москва;55.634009;37.521929;;;
Марьиной Рощи 15-Й проезд, напротив д.4, корп.1 по ул. 17-й проезд Марьиной Рощи, г. Москва;55.809816;37.612324;;;
ул.Академика Варги, д.4А, г. Москва;55.631285;37.479205;;;
ул.Болотниковская, д.5, г. Москва;55.656193;37.61389;;;
Варшавское ш., д.6 по ул. 4-ая Павлоградская, из центра, г. Москва;55.545409;37.584886;;;
Варшавское ш., пересечение с Большой Бутовской, из центра, г. Москва;55.545472;37.58531;;;
ул.Грина, д.3А, г. Москва;55.5662;37.574963;;;
ул.Новаторов, д.28, г. Москва;55.664735;37.52627;;;
60-Летия Октября просп., д.27, к.1, г. Москва;55.69034;37.575397;;;
ул.Профсоюзная, д.20/9, из центра, г. Москва;55.682132;37.5671;;;
ул.Профсоюзная, д.24, к.1, из центра, г. Москва;55.680073;37.564835;;;
Нагатинская наб., напротив д.6 по Нагатинскому бульвару, г. Москва;55.684296;37.651282;;;
ул.Шипиловская, д.62А, г. Москва;55.623088;37.751439;;;
ул.Менделеевская, микрорайон Ленинские Горы, 1с3А, г. Москва;55.702586;37.523902;;;
ул.Верхние Поля, д.56Г, г. Москва;55.656912;37.826372;;;
Новочеркасский бул., вл.5, г. Москва;55.646355;37.719403;;;
ул.Старобитцевская, д.21, к.2, г. Москва;55.578062;37.577475;;;
ул.Адмирала Лазарева, д.6, г. Москва;55.546109;37.541916;;;
ул.Озерная, д.34, к.1, г. Москва;55.673926;37.450414;;;
ул.Профсоюзная, д.117, г. Москва;55.630336;37.517899;;;
ул.Куликовская, д.16, к.1 по ул.Ратная, г. Москва;55.576701;37.569242;;;
ул.Юности, д.15, г. Москва;55.724839;37.800385;;;
Чечерский проезд, напротив вл.5, г. Москва;55.535195;37.538523;;;
Мичуринский просп., д.58, к.1, г. Москва;55.691411;37.487224;;;
Мичуринский просп., напротив д.58, к.1, г. Москва;55.691632;37.488087;;;
Старокрюковский проезд, д.18, с.8 по ул.Заводская, г. Зеленоград, г. Москва;55.974452;37.183296;;;
Нахимовский просп., д.48, г. Москва;55.680039;37.559882;;;
Зеленый просп., д.44, г. Москва;55.752947;37.807588;;;
ул.Суздальская, д.12, к.1, г. Москва;55.739569;37.846745;;;
Краснопресненская наб., напротив д.2, г. Москва;55.753783;37.570438;;;
ул.Бирюлевская, д.58, к.1, г. Москва;55.581266;37.671563;;;
ул.Косинская Б., вл.1, г. Москва;55.708032;37.851065;;;
ул.Знаменские Садки, д.1А, г. Москва;55.572102;37.575414;;;
ул.Знаменские Садки, напротив д.1А, г. Москва;55.572717;37.573987;;;
Можайское ш., д.9, дублер, г. Москва;55.721309;37.438829;;;
Серебрякова проезд, д.2, к.1, г. Москва;55.846605;37.642319;;;
ул.Василия Петушкова, д.25, г. Москва;55.83843;37.407458;;;
ул.Бакунинская, д.23/41, г. Москва;55.775759;37.685544;;;
ул.Производственная, д.5, г. Москва;55.649489;37.38578;;;
ул.Лебедева, микрорайон Ленинские Горы, 1Л, г. Москва;55.701035;37.533541;;;
ул.Куусинена, д.21, г. Москва;55.79015;37.51073;;;
Свободный просп., д.21/2, г. Москва;55.75777;37.819833;;;
Мира просп., напротив вл.119 стр.70 (территория АО ВДНХ), г. Москва;55.828895;37.639721;;;
ул.Рудневка, д.15, г. Москва;55.715976;37.88499;;;
Сиреневый бул., д.60, г. Москва;55.803143;37.826078;;;
ул.Молдагуловой, д.32, г. Москва;55.719616;37.830602;;;
Волжский Бульвар 113 А кв-л, к.3, г. Москва;55.697991;37.752817;;;
ул.Балтийская, д.6, к.1, г. Москва;55.808368;37.513363;;;
ул.Милашенкова, д.17, г. Москва;55.826757;37.581631;;;
ул.Свободы, д.57, г. Москва;55.85051;37.45257;;;
ул.Маршала Прошлякова, д.13, г. Москва;55.789104;37.388886;;;
Коровинское ш., д.21, к.1, г. Москва;55.876381;37.524743;;;
ул.Нагатинская, д.9, к.3, г. Москва;55.68018;37.63706;;;
ул.Дубнинская, д.69, к.2, г. Москва;55.87682;37.55745;;;
ул.Космонавта Волкова, д.13, к.1, г. Москва;55.81571;37.51443;;;
Озерная аллея, у д.5, с.2 по Георгиевскому проспекту, г. Зеленоград, г. Москва;55.985477;37.214901;;;
ул.Онежская, д.8/7, г. Москва;55.845416;37.521712;;;
ул.Онежская, д.38, к.1, г. Москва;55.859621;37.50874;;;
Пресненский вал, напротив д.26, г. Москва;55.769968;37.565475;;;
ул.Генерала Глаголева, д.12, г. Москва;55.781762;37.462181;;;
Олимпийский просп., д.11, с.2, г. Москва;55.79015;37.62242;;;
ул.Ивантеевская, д.5, к.6 по Открытому шоссе, г. Москва;55.814108;37.734188;;;
Грузинский вал, д.11, с.3, г. Москва;55.774012;37.579402;;;
ул.Первомайская Нижн., д.24, г. Москва;55.79101;37.80156;;;
Мира просп., д.182, (дублер), г. Москва;55.82603;37.647305;;;
Мира просп., (дублер), напротив д.126, в центр, г. Москва;55.817394;37.638342;;;
Ярославское ш. (дублёр), д.117, остановка общественного транспорта «Детская поликлиника», в центр, г. Москва;55.871903;37.712345;;;
ул.Адмирала Корнилова (П Московский), напротив д.66, Московский п-е, г. Москва;55.620853;37.445955;;;
Нахимовский просп., д.65А, г. Москва;55.680498;37.557754;;;
ул.Профсоюзная, д.13, г. Москва;55.680438;37.5659;;;
Ломоносовский просп., д.14, г. Москва;55.689844;37.542328;;;
ул.Владимирская 1-Я, д.34, к.3, г. Москва;55.747802;37.781003;;;
Зеленый просп., д.8, г. Москва;55.749275;37.776856;;;
Рождественский бул., д.15, г. Москва;55.766667;37.627663;;;
Гоголевский бул., д.25, с.1, г. Москва;55.748478;37.599507;;;
ул.Первомайская, д.52, г. Москва;55.793098;37.792163;;;
ул.Новогиреевская, д.14, к.1, г. Москва;55.761926;37.79281;;;
ул.Первомайская Нижн., напротив д.29, г. Москва;55.791067;37.803713;;;
ул.Первомайская, д.80, г. Москва;55.793218;37.803467;;;
Озерная аллея, д.8, г. Зеленоград, г. Москва;55.98481;37.225018;;;
ул.Твардовского, напротив д.31, к.2, г. Москва;55.796623;37.409306;;;
Международное ш., съезд на Ленинградское ш., г. Москва;55.922353;37.393662;;;
ул.Краснодонская, д.33, г. Москва;55.675832;37.749138;;;
Ленинградское ш., д.65, с.1, г. Москва;55.866974;37.461984;;;
ул.Атласова, д.2А по ул.Хабарова, г. Московский, Московский п-е, г. Москва;55.596998;37.355542;;;
ул.Первомайская, д.105, г. Москва;55.793414;37.80967;;;
ул.Николая Старостина, д.3/2, г. Москва;55.731358;37.848962;;;
ул.Кравченко, вл.19, г. Москва;55.676526;37.517875;;;
ул.Щепкина, д.47, с.1, г. Москва;55.781358;37.629412;;;
ул.Башиловская, д.1, к.1, г. Москва;55.793014;37.576978;;;
ул.Пироговская Б., д.29, г. Москва;55.729931;37.566927;;;
ул.Покрышкина, напротив д.1, к.1, г. Москва;55.664025;37.479803;;;
Волгоградский просп., д.3-5, с.2, г. Москва;55.732096;37.671573;;;
ул.Череповецкая, д.12, г. Москва;55.89823;37.57235;;;
ул.Миклухо-Маклая, д.40А, г. Москва;55.638267;37.542183;;;
ул.Череповецкая, д.24, г. Москва;55.89803;37.58429;;;
ул.Люблинская, д.60, г. Москва;55.674268;37.739197;;;
ул.Центральная, д.6, к.2 по ул.2-я Рейсовая, п. Внуково, г. Москва;55.606883;37.295352;;;
Новочеркасский бул., д.30, г. Москва;55.646429;37.727222;;;
Нагатинская наб., напротив д.18, к.1, г. Москва;55.684675;37.65601;;;
Дмитровское ш., д.5/1, г. Москва;55.812708;37.57786;;;
ул.Рябиновая, д.8, к.1, г. Москва;55.716787;37.423281;;;
ул.Рябиновая, д.9, г. Москва;55.717614;37.423827;;;
Балаклавский просп., д.1, г. Москва;55.640536;37.61725;;;
ул.Азовская, напротив д.15, г. Москва;55.656575;37.598206;;;
"ул.Лобачевского, ООТ ""МГИМО"", г. Москва";55.671644;37.491469;;;
Щелковское ш., д.66, дублёр из центра, г. Москва;55.810242;37.807083;;;
Варшавское шоссе, у д.1 снт Связист-1, д. Киселево, Кленовское п-е, г. Москва;55.352917;37.340838;;;
Мичуринский просп., д.6, к.3, г. Москва;55.711862;37.52704;;;
Ломоносовский просп., напротив д.27, к.4, г. Москва;55.701771;37.521599;;;
ул.Шереметьевская, д.6, к.1, г. Москва;55.79684;37.616258;;;
ул.Смольная, д.35, с.1, г. Москва;55.861037;37.481746;;;
ул.Рябиновая, напротив д.12, г. Москва;55.714795;37.42329;;;
ул.Рябиновая, д.14, г. Москва;55.713982;37.422498;;;
ул.Бориса Галушкина, д.7, г. Москва;55.824904;37.652851;;;
ул.Бориса Галушкина, д.12, г. Москва;55.824243;37.653993;;;
Ярославское ш., д.19, с.1, в центр, г. Москва;55.858704;37.687367;;;
ул.Вольская 2-Я, д.15, г. Москва;55.686885;37.929113;;;
Ярославское ш., д.19, с.1, (дублёр), в центр, г. Москва;55.858269;37.686199;;;
ул.Минская, д.9, г. Москва;55.737347;37.485123;;;
Ломоносовский просп., д.8/73, г. Москва;55.687584;37.546291;;;
Ярославское ш., д.5, (дублёр), в центр, г. Москва;55.85217;37.67774;;;
ул.Обручева, у д.109/1, к.3, по Ленинскому проспекту, г. Москва;55.661905;37.511005;;;
ул.Нагатинская, д.6, г. Москва;55.680255;37.634285;;;
ул.Селезневская, д.32, г. Москва;55.781084;37.612148;;;
Щелковское ш., д.91А, с.1, г. Москва;55.812757;37.826864;;;
"а/д ""М1 Беларусь-Кокошкино-М3 Украина"", поворот на ул. Горького, Кокошкино п-е, г. Москва";55.588332;37.15821;;;
Мира просп., д.99, г. Москва;55.810599;37.637155;;;
Ярославское ш., д.135, г. Москва;55.877896;37.719626;;;
Щелковское ш., д.38/66, г. Москва;55.809757;37.787703;;;
Мира просп., д.222, с.4, г. Москва;55.842364;37.665834;;;
Мира просп., д.122, г. Москва;55.813534;37.638423;;;
ул.Академика Скрябина, д.5, к.1, г. Москва;55.714457;37.796782;;;
Кутузовский просп., д.34, с.14, г. Москва;55.739235;37.530306;;;
ул.Электродная, д.4А, г. Москва;55.755697;37.751969;;;
ул.Плеханова, д.26, к.4, г. Москва;55.740449;37.768553;;;
Рязанский просп., д.91, к.1, г. Москва;55.715671;37.803293;;;
ул.Кусковская, д.37/60, г. Москва;55.742747;37.788535;;;
ул.Твардовского, д.2, к.4, г. Москва;55.798833;37.390611;;;
ул.Дубровская 1-Я, д.2, г. Москва;55.728724;37.668545;;;
ул.Косинская Б., напротив вл.1, г. Москва;55.708449;37.851741;;;
Вернадского просп., напротив д.19, с.1 по ул.Косыгина, г. Москва;55.704815;37.552065;;;
Тульская м., д.45А, к.5, г. Москва;55.70349;37.61753;;;
Свободный просп., д.2, с.2, г. Москва;55.761701;37.821264;;;
Можайское ш., д.23, дублер в центр, г. Москва;55.720138;37.427421;;;
ул.Ижорская, д.5, г. Москва;55.884834;37.504197;;;
ул.Суздальская, д.18, к.1, г. Москва;55.741765;37.847858;;;
Коровинское ш., д.41, г. Москва;55.886561;37.514304;;;
ул.Черкизовская Б., д.1, к.1, дублёр, г. Москва;55.796634;37.715802;;;
Измайловский бул., д.28/12, г. Москва;55.796534;37.794054;;;
ул.Митинская, д.36, к.1, г. Москва;55.846742;37.360757;;;
Симферопольский бул., пересечение с Балаклавским просп. из центра, г. Москва;55.641111;37.605299;;;
ул.Азовская, пересечение с ул.Болотниковская, в центр, г. Москва;55.656877;37.598289;;;
Университетский просп., д.4, г. Москва;55.696658;37.554163;;;
ул.Салтыковская, д.11Б, с.1, г. Москва;55.73422;37.862788;;;
"Остафьевское ш., ООТ ""Аэропорт Остафьево"", с. Остафьево, Рязановское п-е, г. Москва";55.5025;37.51754;;;
ул.Болотниковская, д.15, к.2 по ул.Цюрупы, г. Москва;55.665433;37.569052;;;
ул.Центральная, д.2Г по ул.2-я Рейсовая, п. Внуково, г. Москва;55.606477;37.295429;;;
ул.Новослободская, д.37, к.4А, г. Москва;55.782796;37.597748;;;
"ул.Прянишникова, ООТ ""Университет печати"", г. Москва";55.835681;37.541855;;;
Чечерский проезд, д.25, г. Москва;55.530355;37.526277;;;
Севастопольский просп., пересечение с ул.Обручева из центра, г. Москва;55.64959;37.56265;;;
ул.Авиаконструктора Микояна, пересечение с Ходынским бульв. в центр, г. Москва;55.788879;37.540556;;;
Новомихалковский 4-Й проезд, напротив д.14, с.1, г. Москва;55.844891;37.542349;;;
ул.Магистральная 1-Я, д.20, с.2, г. Москва;55.771405;37.517017;;;
ул.1905 Года, д.3, г. Москва;55.758768;37.55802;;;
ул.Вешняковская, д.3, г. Москва;55.738408;37.819913;;;
Волгоградский просп., д.39А, г. Москва;55.716237;37.709892;;;
60-Летия Октября просп., д.18, к.1, г. Москва;55.689479;37.574512;;;
Мира просп., вл.119 стр.142 (территория АО ВДНХ), г. Москва;55.830381;37.619916;;;
ул.Барболина, д.3, к.18, г. Москва;55.787279;37.687349;;;
ул.Бусиновская Горка, д.3, г. Москва;55.881659;37.495886;;;
Трикотажный проезд, д.3, к.2 по ул.Василия Петушкова, г. Москва;55.833445;37.399725;;;
ул.Владимирская 2-Я, д.14, г. Москва;55.758927;37.779851;;;
ул.Подвойского, д.14, г. Москва;55.76232;37.53677;;;
Мурманский проезд, д.14, к.3, г. Москва;55.80647;37.62298;;;
ул.Маршала Катукова, д.3, к.1, г. Москва;55.812891;37.3965;;;
ул.Кусковская, д.17, к.1, г. Москва;55.739033;37.778712;;;
Машкинское ш., напротив д.23, к.37, г. Москва;55.907047;37.367099;;;
Мира просп., д.94 из центра, г. Москва;55.795739;37.634985;;;
Ломоносовский просп., д.31, к.1, г. Москва;55.706046;37.513575;;;
Волгоградский просп., вл.40, г. Москва;55.715704;37.710669;;;
Энтузиастов ш., д.51, дублер, в центр, г. Москва;55.772614;37.823527;;;
Лермонтовский просп., съезд на МКАД, г. Москва;55.708188;37.838345;;;
Можайское ш., д.28, дублер, из центра, г. Москва;55.719954;37.421713;;;
Вернадского просп., д.158, с.3 по Ленинскому проспекту, г. Москва;55.650773;37.480787;;;
Волгоградский просп., д.59, дублёр, г. Москва;55.709535;37.733819;;;
Звенигородское ш., д.2, с.2 по 1-ой Магистральной ул., эстакада, г. Москва;55.7669;37.533121;;;
Ярославское ш., д.65, (дублёр), в центр, г. Москва;55.866141;37.702463;;;
Вернадского просп., МГТ №270, из центра, г. Москва;55.707177;37.554777;;;
ул.Минская, напротив д.1Л, г. Москва;55.724361;37.497396;;;
Маршала Жукова просп., д.44, дублёр из центра, г. Москва;55.77695;37.467766;;;
ул.Стромынка, д.7, к.6, г. Москва;55.793228;37.690699;;;
Дмитровское ш., напротив д.5/1, г. Москва;55.813657;37.577882;;;
ул.Изюмская, д.57, г. Москва;55.544418;37.561853;;;
ул.Люблинская, д.121/1, г. Москва;55.674797;37.73948;;;
Косинское ш., дублёр, пересечение с ул.Большая Косинская, из центра, г. Москва;55.708158;37.851972;;;
ул.Красный Казанец, д.7, г. Москва;55.72119;37.805579;;;
Волгоградский просп., д.181, к.1,  в центр, г. Москва;55.69641;37.807018;;;
Севастопольский просп., д.75, к.1, в центр, г. Москва;55.655663;37.570307;;;
Волгоградский просп., напротив д.23, стр.6 по ул. Академика Скрябина, в центр, г. Москва;55.699049;37.800258;;;
Севастопольский просп., д.45, к.1, в центр, г. Москва;55.671961;37.587818;;;
ул.Обручева, д.29, с.1, г. Москва;55.652557;37.546953;;;
ул.Обручева, д.34/63, с.2, г. Москва;55.655212;37.540414;;;
Волгоградский просп., д.169, в центр, г. Москва;55.702446;37.788876;;;
ул.Обручева, напротив д.36, к.1, г. Москва;55.65465;37.542407;;;
ул.Молодогвардейская, д.13, г. Москва;55.73362;37.429299;;;
МКАД 66 км, внешняя сторона, вл.3 по МКАД 65 км, г. Москва;55.812629;37.389253;;;
Дмитровское ш., д.159, г. Москва;55.905033;37.542622;;;
ул.Вяземская, д.13, г. Москва;55.710273;37.405407;;;
Волоколамское ш., д.30, г. Москва;55.812341;37.478598;;;
"Киевское ш., ООТ ""Картмазово"", в центр, Московский п-е, г. Москва";55.617705;37.387361;;;
Севастопольский просп., напротив д.31, к.1, г. Москва;55.676051;37.59176;;;
Севастопольский просп., д.35, г. Москва;55.674865;37.590965;;;
Киевское ш., 55 км, Новофедоровское п-е, г. Москва;55.486005;36.950548;;;
ул.Рябиновая, напротив д.55, с.3, г. Москва;55.691818;37.42617;;;
Крымский вал, напротив д.9, с.45, г. Москва;55.733;37.602435;;;
ул.Профсоюзная, д.41А по ул. Генерала Тюленева, г. Москва;55.613207;37.495394;;;
ул.Голубинская, д.9, г. Москва;55.60486;37.5112;;;
Ломоносовский просп., напротив д.8, с.1 по Мичуринскому просп., г. Москва;55.706172;37.514055;;;
Рязанский просп., д.55/1, г. Москва;55.723231;37.769157;;;
"а/д ""М1 Беларусь-Крекшино-Троицк"", поворот на д. Анкудиново от Минского ш., д. Анкудиново, Марушкинское п-е, г. Москва";55.564637;37.152095;;;
"а/д ""М1 Беларусь-Крекшино-Троицк"", поворот на д. Анкудиново от Киевского шоссе, д. Анкудиново, Марушкинское п-е, г. Москва";55.565117;37.152892;;;
Панфиловский просп., д.1, г. Зеленоград, г. Москва;56.004001;37.197639;;;
ул.Фабрициуса, напротив д.30, г. Москва;55.843476;37.438778;;;
ул.Сходненская, д.19/13, г. Москва;55.843335;37.439078;;;
ул.Сходненская, д.26 по ул. Фабрициуса, г. Москва;55.843626;37.439494;;;
Боровское ш., д.38, г. Москва;55.638208;37.352499;;;
Рязанский просп., дублер, напротив д.76/2, г. Москва;55.711617;37.819395;;;
Каширское ш., дублер, напротив д.13 по Ореховому бул., г. Москва;55.611198;37.717947;;;
Нижнелихоборский 3-Й проезд, д.61, к.1 по Дмитровскому ш., г. Москва;55.846262;37.567628;;;
ул.Профсоюзная, дублер, напротив д.1 по ул. Теплый Стан, г. Москва;55.619473;37.504865;;;
Боровское ш., д.47, г. Москва;55.638589;37.353811;;;
Балаклавский просп., д.18, к.1, г. Москва;55.641741;37.60224;;;
Балаклавский просп., д.7, г. Москва;55.641312;37.604367;;;
Каширское ш., д.24, с.3, г. Москва;55.655563;37.647214;;;
ул.Милашенкова, д.20, из центра, г. Москва;55.82992;37.578089;;;
ул.Милашенкова, д.11, к.1, г. Москва;55.824591;37.58493;;;
ул.Академика Королева, д.12, г. Москва;55.821644;37.606664;;;
Бутырский вал, д.22, с.3, г. Москва;55.780621;37.586001;;;
ул.Лесная, д.61, с.4, г. Москва;55.782558;37.594416;;;
ул.Летчика Бабушкина, д.38, к.1, г. Москва;55.8724;37.677282;;;
Ярославское ш., д.142, из центра, г. Москва;55.876191;37.718255;;;
Анадырский проезд, д.47, к.1, г. Москва;55.873571;37.699536;;;
Ореховый бул., д.11, к.1, г. Москва;55.610232;37.712978;;;
ул.Борисовские Пруды, напротив д.19, к.1, г. Москва;55.63535;37.722495;;;
Ореховый проезд, напротив д.10, к.1 по ул.Мусы Джалиля, г. Москва;55.626679;37.737618;;;
ул.Ясеневая, д.17, г. Москва;55.603038;37.729814;;;
Бесединское ш., у вл.15, г. Москва;55.622971;37.76057;;;
ул.Борисовские Пруды, д.22, к.1, г. Москва;55.639211;37.752956;;;
ул.Бориса Галушкина, д.184, к.2 по проспекту Мира, г. Москва;55.826113;37.649612;;;
Мира просп., д.142, (дублер), г. Москва;55.820158;37.641058;;;
ул.Енисейская, д.2, к.2, г. Москва;55.855874;37.663439;;;
"МКАД 94 км, внешняя сторона, 810 метров до ООТ ""Поворот на Мытищи"", г. Москва";55.885283;37.720013;;;
Мира просп., д.103, г. Москва;55.813177;37.637696;;;
ул.Академика Королева, напротив д.15А, г. Москва;55.821681;37.615539;;;
Звездный бул., д.24, г. Москва;55.814819;37.628326;;;
ул.Тимирязевская, д.16, г. Москва;55.81453;37.565617;;;
Дмитровское ш., напротив д.1, к.1, г. Москва;55.81088;37.579401;;;
Алтуфьевское ш., д.1, к.1, в центр, г. Москва;55.848177;37.584586;;;
Дмитровское ш., д.43, к.1, г. Москва;55.833755;37.572631;;;
Дмитровское ш., напротив д.9, г. Москва;55.815721;37.576687;;;
Дмитровское ш., д.64, к.3, г. Москва;55.856456;37.561497;;;
Алтуфьевское ш., д.86, г. Москва;55.896448;37.587103;;;
ул.Тимирязевская, д.58, г. Москва;55.834499;37.549354;;;
ул.Липецкая, д.14, к.1, г. Москва;55.597362;37.67166;;;
ул.Липецкая, напротив д.4, к.1, г. Москва;55.600577;37.671297;;;
Булатниковский проезд, напротив д.1Б по ул.Харьковская, г. Москва;55.585762;37.657296;;;
Проектируемый проезд № 5108, д.6, к.1 по Элеваторной ул., г. Москва;55.602009;37.656988;;;
ул.Липецкая, напротив д.34/25, г. Москва;55.587132;37.676948;;;
Проектируемый проезд № 5108, у д.15Б, с.12, по ул. Подольских Курсантов, г. Москва;55.601925;37.641876;;;
ул.Подольских Курсантов, вл.5, г. Москва;55.608623;37.619192;;;
Варшавское ш., д.21, г. Москва;55.695772;37.62115;;;
Варшавское ш., д.33, с.12, г. Москва;55.692076;37.621841;;;
Проектируемый проезд № 5108, д.7, с.62 по ул.6-я Радиальная, г. Москва;55.602276;37.656929;;;
Ленинградское ш., д.8, к.2, из центра, г. Москва;55.817318;37.49953;;;
Волоколамское ш., д.22, дублер, из центра, г. Москва;55.810666;37.487855;;;
Ленинградское ш., д.29, г. Москва;55.831014;37.487656;;;
Дмитровское ш., напротив д.157, с.7, г. Москва;55.901083;37.543441;;;
Дмитровское ш., д.118Б, г. Москва;55.905213;37.543239;;;
Андропова просп., д.8, дублёр, из центра, г. Москва;55.696236;37.666213;;;
Варшавское ш., д.11, г. Москва;55.700304;37.620938;;;
